{
    "09": [
        {
            "lat": "40.47746", 
            "name": "Zabrat", 
            "long": "49.94174"
        }, 
        {
            "lat": "40.39667", 
            "name": "Qara&#231;uxur", 
            "long": "49.97361"
        }, 
        {
            "lat": "40.4425", 
            "name": "Sabun&#231;u", 
            "long": "49.94806"
        }, 
        {
            "lat": "40.52983", 
            "name": "Ma&#351;ta&#287;a", 
            "long": "50.00616"
        }, 
        {
            "lat": "40.49182", 
            "name": "Mardakyany", 
            "long": "50.14292"
        }, 
        {
            "lat": "40.3256", 
            "name": "L&#246;kbatan", 
            "long": "49.73376"
        }, 
        {
            "lat": "40.43026", 
            "name": "Yeni Suraxan&#305;", 
            "long": "50.03598"
        }, 
        {
            "lat": "40.37444", 
            "name": "H&#246;vsan", 
            "long": "50.08528"
        }, 
        {
            "lat": "40.51903", 
            "name": "Buzovna", 
            "long": "50.11438"
        }, 
        {
            "lat": "40.45076", 
            "name": "Biny Selo", 
            "long": "50.08686"
        }, 
        {
            "lat": "40.4444", 
            "name": "Bilajari", 
            "long": "49.80566"
        }, 
        {
            "lat": "40.37767", 
            "name": "Baku", 
            "long": "49.89201"
        }, 
        {
            "lat": "40.42639", 
            "name": "Amirdzhan", 
            "long": "49.98361"
        }, 
        {
            "lat": "40.41894", 
            "name": "Bak&#305;xanov", 
            "long": "49.96693"
        }
    ], 
    "50": [
        {
            "lat": "40.63141", 
            "name": "Shamakhi", 
            "long": "48.64137"
        }
    ], 
    "60": [
        {
            "lat": "41.46426", 
            "name": "Xa&#231;maz", 
            "long": "48.80565"
        }
    ], 
    "61": [
        {
            "lat": "39.8177", 
            "name": "Xankandi", 
            "long": "46.7528"
        }
    ], 
    "62": [
        {
            "lat": "40.58584", 
            "name": "Yelenendorf", 
            "long": "46.3189"
        }
    ], 
    "68": [
        {
            "lat": "40.61832", 
            "name": "Yevlakh", 
            "long": "47.15014"
        }
    ], 
    "04": [
        {
            "lat": "40.64699", 
            "name": "A&#287;da&#351;", 
            "long": "47.4738"
        }
    ], 
    "24": [
        {
            "lat": "39.87095", 
            "name": "Imishli", 
            "long": "48.05995"
        }
    ], 
    "03": [
        {
            "lat": "39.99096", 
            "name": "A&#287;dam", 
            "long": "46.92736"
        }
    ], 
    "27": [
        {
            "lat": "40.34532", 
            "name": "Kyurdarmir", 
            "long": "48.15085"
        }
    ], 
    "20": [
        {
            "lat": "40.68278", 
            "name": "Ganja", 
            "long": "46.36056"
        }
    ], 
    "07": [
        {
            "lat": "39.93778", 
            "name": "&#350;irvan", 
            "long": "48.929"
        }
    ], 
    "48": [
        {
            "lat": "41.19194", 
            "name": "Sheki", 
            "long": "47.17056"
        }
    ], 
    "49": [
        {
            "lat": "39.59621", 
            "name": "Salyan", 
            "long": "48.98479"
        }
    ], 
    "46": [
        {
            "lat": "40.00869", 
            "name": "Sabirabad", 
            "long": "48.47701"
        }
    ], 
    "08": [
        {
            "lat": "38.45598", 
            "name": "Astara", 
            "long": "48.87498"
        }
    ], 
    "45": [
        {
            "lat": "39.87867", 
            "name": "&#399;hm&#601;db&#601;yli", 
            "long": "48.39901"
        }, 
        {
            "lat": "39.93214", 
            "name": "Saatl&#305;", 
            "long": "48.36892"
        }
    ], 
    "42": [
        {
            "lat": "41.36108", 
            "name": "Quba", 
            "long": "48.51341"
        }
    ], 
    "29": [
        {
            "lat": "38.75428", 
            "name": "Lankaran", 
            "long": "48.85062"
        }
    ], 
    "40": [
        {
            "lat": "41.09246", 
            "name": "Qazax", 
            "long": "45.36561"
        }
    ], 
    "06": [
        {
            "lat": "40.57028", 
            "name": "Aghsu", 
            "long": "48.40087"
        }
    ], 
    "02": [
        {
            "lat": "40.05015", 
            "name": "Agdzhabedy", 
            "long": "47.45937"
        }
    ], 
    "01": [
        {
            "lat": "40.44808", 
            "name": "Khirdalan", 
            "long": "49.75502"
        }
    ], 
    "70": [
        {
            "lat": "41.6316", 
            "name": "Zaqatala", 
            "long": "46.64479"
        }
    ], 
    "59": [
        {
            "lat": "40.51902", 
            "name": "Ujar", 
            "long": "47.65423"
        }
    ], 
    "11": [
        {
            "lat": "40.37577", 
            "name": "Barda", 
            "long": "47.12619"
        }
    ], 
    "13": [
        {
            "lat": "39.45833", 
            "name": "Pushkino", 
            "long": "48.545"
        }
    ], 
    "12": [
        {
            "lat": "39.77556", 
            "name": "Beylagan", 
            "long": "47.61861"
        }
    ], 
    "15": [
        {
            "lat": "39.20963", 
            "name": "Dzhalilabad", 
            "long": "48.49186"
        }
    ], 
    "22": [
        {
            "lat": "40.65055", 
            "name": "Geoktschai", 
            "long": "47.74219"
        }
    ], 
    "17": [
        {
            "lat": "41.20117", 
            "name": "Divichibazar", 
            "long": "48.98712"
        }
    ], 
    "55": [
        {
            "lat": "39.76006", 
            "name": "Shushi", 
            "long": "46.74989"
        }
    ], 
    "18": [
        {
            "lat": "39.60094", 
            "name": "Fizuli", 
            "long": "47.14529"
        }
    ], 
    "57": [
        {
            "lat": "40.34179", 
            "name": "Terter", 
            "long": "46.93242"
        }
    ], 
    "23": [
        {
            "lat": "40.03874", 
            "name": "Hac&#305;qabul", 
            "long": "48.94286"
        }
    ], 
    "51": [
        {
            "lat": "40.82975", 
            "name": "Shamkhor", 
            "long": "46.0178"
        }
    ], 
    "36": [
        {
            "lat": "39.3768", 
            "name": "Neft&#231;ala", 
            "long": "49.247"
        }
    ], 
    "35": [
        {
            "lat": "39.20889", 
            "name": "Nakhchivan", 
            "long": "45.41222"
        }
    ], 
    "33": [
        {
            "lat": "40.76395", 
            "name": "Mingelchaur", 
            "long": "47.05953"
        }
    ], 
    "54": [
        {
            "lat": "40.58972", 
            "name": "Sumqay&#305;t", 
            "long": "49.66861"
        }, 
        {
            "lat": "40.62333", 
            "name": "Hac&#305; Zeynalabdin", 
            "long": "49.55861"
        }
    ], 
    "44": [
        {
            "lat": "41.4275", 
            "name": "Qusar", 
            "long": "48.4302"
        }
    ]
}