{
    "02": [
        {
            "lat": "-17.54234", 
            "name": "Punata", 
            "long": "-65.83472"
        }, 
        {
            "lat": "-17.94101", 
            "name": "Mizque", 
            "long": "-65.34016"
        }, 
        {
            "lat": "-17.3895", 
            "name": "Cochabamba", 
            "long": "-66.1568"
        }
    ], 
    "03": [
        {
            "lat": "-14.83333", 
            "name": "Trinidad", 
            "long": "-64.9"
        }, 
        {
            "lat": "-14.81667", 
            "name": "San Borja", 
            "long": "-66.85"
        }, 
        {
            "lat": "-11.00654", 
            "name": "Riberalta", 
            "long": "-66.06312"
        }, 
        {
            "lat": "-10.83676", 
            "name": "Guayaramer&#237;n", 
            "long": "-65.36136"
        }
    ], 
    "01": [
        {
            "lat": "-19.03332", 
            "name": "Sucre", 
            "long": "-65.26274"
        }
    ], 
    "06": [
        {
            "lat": "-11.02671", 
            "name": "Cobija", 
            "long": "-68.76918"
        }
    ], 
    "07": [
        {
            "lat": "-22.08659", 
            "name": "Villaz&#243;n", 
            "long": "-65.59422"
        }, 
        {
            "lat": "-21.44345", 
            "name": "Tupiza", 
            "long": "-65.71875"
        }, 
        {
            "lat": "-19.58361", 
            "name": "Potos&#237;", 
            "long": "-65.75306"
        }, 
        {
            "lat": "-18.42426", 
            "name": "Llallagua", 
            "long": "-66.58388"
        }
    ], 
    "04": [
        {
            "lat": "-16.5", 
            "name": "La Paz", 
            "long": "-68.15"
        }
    ], 
    "05": [
        {
            "lat": "-17.98333", 
            "name": "Oruro", 
            "long": "-67.15"
        }, 
        {
            "lat": "-18.289", 
            "name": "Huanuni", 
            "long": "-66.83583"
        }
    ], 
    "08": [
        {
            "lat": "-17.5", 
            "name": "Warnes", 
            "long": "-63.16667"
        }, 
        {
            "lat": "-17.4", 
            "name": "Villa Yapacan&#237;", 
            "long": "-63.83333"
        }, 
        {
            "lat": "-17.98674", 
            "name": "Santiago del Torno", 
            "long": "-63.38118"
        }, 
        {
            "lat": "-17.78629", 
            "name": "Santa Cruz de la Sierra", 
            "long": "-63.18117"
        }, 
        {
            "lat": "-16.36667", 
            "name": "San Ignacio de Velasco", 
            "long": "-60.95"
        }, 
        {
            "lat": "-17.33866", 
            "name": "Montero", 
            "long": "-63.2505"
        }, 
        {
            "lat": "-17.81667", 
            "name": "Cotoca", 
            "long": "-63.05"
        }, 
        {
            "lat": "-20.03849", 
            "name": "Camiri", 
            "long": "-63.51833"
        }
    ], 
    "09": [
        {
            "lat": "-22.01643", 
            "name": "Yacuiba", 
            "long": "-63.67753"
        }, 
        {
            "lat": "-21.26235", 
            "name": "Villamontes", 
            "long": "-63.46903"
        }, 
        {
            "lat": "-21.53549", 
            "name": "Tarija", 
            "long": "-64.72956"
        }
    ]
}