{
    "11": [
        {
            "lat": "20.78919", 
            "name": "Taunggyi", 
            "long": "97.03776"
        }, 
        {
            "lat": "22.9359", 
            "name": "Lashio", 
            "long": "97.7498"
        }
    ], 
    "03": [
        {
            "lat": "17.04459", 
            "name": "Nyaungdon", 
            "long": "95.63957"
        }, 
        {
            "lat": "16.60333", 
            "name": "Wakema", 
            "long": "95.18278"
        }, 
        {
            "lat": "16.28543", 
            "name": "Pyapon", 
            "long": "95.67882"
        }, 
        {
            "lat": "18.28651", 
            "name": "Myanaung", 
            "long": "95.32014"
        }, 
        {
            "lat": "16.3772", 
            "name": "Mawlamyinegyunn", 
            "long": "95.26488"
        }, 
        {
            "lat": "16.73148", 
            "name": "Maubin", 
            "long": "95.65441"
        }, 
        {
            "lat": "16.44502", 
            "name": "Kyaiklat", 
            "long": "95.72373"
        }, 
        {
            "lat": "17.64944", 
            "name": "Hinthada", 
            "long": "95.45705"
        }, 
        {
            "lat": "16.29415", 
            "name": "Bogale", 
            "long": "95.39742"
        }, 
        {
            "lat": "16.77919", 
            "name": "Pathein", 
            "long": "94.73212"
        }
    ], 
    "13": [
        {
            "lat": "16.91867", 
            "name": "Thaton", 
            "long": "97.37001"
        }, 
        {
            "lat": "16.25624", 
            "name": "Mudon", 
            "long": "97.7246"
        }, 
        {
            "lat": "16.49051", 
            "name": "Mawlamyine", 
            "long": "97.62825"
        }, 
        {
            "lat": "16.52834", 
            "name": "Martaban", 
            "long": "97.6157"
        }, 
        {
            "lat": "17.30858", 
            "name": "Kyaikto", 
            "long": "97.01124"
        }, 
        {
            "lat": "16.07686", 
            "name": "Kyaikkami", 
            "long": "97.56388"
        }
    ], 
    "12": [
        {
            "lat": "14.07375", 
            "name": "Dawei", 
            "long": "98.19423"
        }, 
        {
            "lat": "12.43954", 
            "name": "Myeik", 
            "long": "98.60028"
        }
    ], 
    "15": [
        {
            "lat": "20.46504", 
            "name": "Yenangyaung", 
            "long": "94.8712"
        }, 
        {
            "lat": "19.32076", 
            "name": "Thayetmyo", 
            "long": "95.18272"
        }, 
        {
            "lat": "20.0065", 
            "name": "Taungdwingyi", 
            "long": "95.54531"
        }, 
        {
            "lat": "21.33489", 
            "name": "Pakokku", 
            "long": "95.08438"
        }, 
        {
            "lat": "20.18059", 
            "name": "Minbu", 
            "long": "94.87595"
        }, 
        {
            "lat": "20.14956", 
            "name": "Magway", 
            "long": "94.93246"
        }, 
        {
            "lat": "20.89921", 
            "name": "Chauk", 
            "long": "94.81784"
        }, 
        {
            "lat": "19.36838", 
            "name": "Myaydo", 
            "long": "95.21512"
        }
    ], 
    "04": [
        {
            "lat": "25.38641", 
            "name": "Myitkyina", 
            "long": "97.39439"
        }, 
        {
            "lat": "24.25256", 
            "name": "Bhamo", 
            "long": "97.23357"
        }
    ], 
    "17": [
        {
            "lat": "16.71047", 
            "name": "Twante", 
            "long": "95.92866"
        }, 
        {
            "lat": "16.75998", 
            "name": "Thongwa", 
            "long": "96.52498"
        }, 
        {
            "lat": "16.76887", 
            "name": "Syriam", 
            "long": "96.24503"
        }, 
        {
            "lat": "16.80528", 
            "name": "Yangon", 
            "long": "96.15611"
        }, 
        {
            "lat": "16.90802", 
            "name": "Kayan", 
            "long": "96.56037"
        }, 
        {
            "lat": "16.70728", 
            "name": "Kanbe", 
            "long": "96.00168"
        }
    ], 
    "16": [
        {
            "lat": "18.94291", 
            "name": "Taungoo", 
            "long": "96.43408"
        }, 
        {
            "lat": "17.65399", 
            "name": "Tharyarwady", 
            "long": "95.78813"
        }, 
        {
            "lat": "17.29136", 
            "name": "Thanatpin", 
            "long": "96.57523"
        }, 
        {
            "lat": "17.21194", 
            "name": "Thanatpin", 
            "long": "96.30333"
        }, 
        {
            "lat": "18.4813", 
            "name": "Pyu", 
            "long": "96.43742"
        }, 
        {
            "lat": "18.82464", 
            "name": "Pyay", 
            "long": "95.22216"
        }, 
        {
            "lat": "17.33521", 
            "name": "Bago", 
            "long": "96.48135"
        }, 
        {
            "lat": "18.49167", 
            "name": "Paungde", 
            "long": "95.50591"
        }, 
        {
            "lat": "17.95363", 
            "name": "Nyaunglebin", 
            "long": "96.72247"
        }, 
        {
            "lat": "17.78664", 
            "name": "Letpandan", 
            "long": "95.75076"
        }
    ], 
    "02": [
        {
            "lat": "22.65", 
            "name": "Hakha", 
            "long": "93.61667"
        }
    ], 
    "08": [
        {
            "lat": "20.43189", 
            "name": "Yamethin", 
            "long": "96.13875"
        }, 
        {
            "lat": "19.7381", 
            "name": "Pyinmana", 
            "long": "96.20742"
        }, 
        {
            "lat": "21.46002", 
            "name": "Myingyan", 
            "long": "95.3884"
        }, 
        {
            "lat": "22.91766", 
            "name": "Mogok", 
            "long": "96.50982"
        }, 
        {
            "lat": "20.87776", 
            "name": "Meiktila", 
            "long": "95.85844"
        }, 
        {
            "lat": "22.03501", 
            "name": "Pyin Oo Lwin", 
            "long": "96.45683"
        }, 
        {
            "lat": "21.97473", 
            "name": "Mandalay", 
            "long": "96.08359"
        }, 
        {
            "lat": "21.6056", 
            "name": "Kyaukse", 
            "long": "96.13508"
        }, 
        {
            "lat": "19.745", 
            "name": "Nay Pyi Taw", 
            "long": "96.12972"
        }
    ], 
    "05": [
        {
            "lat": "16.88953", 
            "name": "Hpa-an", 
            "long": "97.63482"
        }
    ], 
    "01": [
        {
            "lat": "20.14624", 
            "name": "Sittwe", 
            "long": "92.89835"
        }
    ], 
    "06": [
        {
            "lat": "19.67798", 
            "name": "Loikaw", 
            "long": "97.20975"
        }
    ], 
    "10": [
        {
            "lat": "22.56925", 
            "name": "Shwebo", 
            "long": "95.69818"
        }, 
        {
            "lat": "21.8787", 
            "name": "Sagaing", 
            "long": "95.97965"
        }, 
        {
            "lat": "22.10856", 
            "name": "Monywa", 
            "long": "95.13583"
        }, 
        {
            "lat": "23.64254", 
            "name": "Mawlaik", 
            "long": "94.40478"
        }
    ]
}