{
    "24": [
        {
            "lat": "-3.3822", 
            "name": "Bujumbura", 
            "long": "29.3644"
        }
    ], 
    "10": [
        {
            "lat": "-3.94877", 
            "name": "Bururi", 
            "long": "29.62438"
        }
    ], 
    "13": [
        {
            "lat": "-3.4264", 
            "name": "Gitega", 
            "long": "29.9308"
        }
    ], 
    "15": [
        {
            "lat": "-2.9221", 
            "name": "Kayanza", 
            "long": "29.6293"
        }
    ], 
    "17": [
        {
            "lat": "-4.1348", 
            "name": "Makamba", 
            "long": "29.804"
        }
    ], 
    "22": [
        {
            "lat": "-3.2682", 
            "name": "Muramvya", 
            "long": "29.6079"
        }
    ], 
    "19": [
        {
            "lat": "-2.9075", 
            "name": "Ngozi", 
            "long": "29.8306"
        }
    ], 
    "18": [
        {
            "lat": "-2.8451", 
            "name": "Muyinga", 
            "long": "30.3414"
        }
    ], 
    "20": [
        {
            "lat": "-3.9279", 
            "name": "Rutana", 
            "long": "29.992"
        }
    ], 
    "21": [
        {
            "lat": "-3.47639", 
            "name": "Ruyigi", 
            "long": "30.24861"
        }
    ]
}