{
    "06": [
        {
            "lat": "14.12116", 
            "name": "Mao", 
            "long": "15.3103"
        }
    ], 
    "13": [
        {
            "lat": "11.0297", 
            "name": "Am Timan", 
            "long": "20.2827"
        }
    ], 
    "12": [
        {
            "lat": "13.82916", 
            "name": "Ab&#233;ch&#233;", 
            "long": "20.8324"
        }
    ], 
    "20": [
        {
            "lat": "9.3642", 
            "name": "Pala", 
            "long": "14.9046"
        }, 
        {
            "lat": "9.7639", 
            "name": "Mboursou L&#233;r&#233;", 
            "long": "14.1539"
        }
    ], 
    "22": [
        {
            "lat": "13.64143", 
            "name": "Moussoro", 
            "long": "16.48941"
        }
    ], 
    "17": [
        {
            "lat": "9.1429", 
            "name": "Sagh", 
            "long": "18.3923"
        }, 
        {
            "lat": "9.45149", 
            "name": "Kyab&#233;", 
            "long": "18.94493"
        }
    ], 
    "05": [
        {
            "lat": "12.18441", 
            "name": "Mongo", 
            "long": "18.69303"
        }, 
        {
            "lat": "11.9801", 
            "name": "Bitkine", 
            "long": "18.2138"
        }
    ], 
    "19": [
        {
            "lat": "8.91256", 
            "name": "Koumra", 
            "long": "17.55392"
        }
    ], 
    "18": [
        {
            "lat": "12.996", 
            "name": "Massakory", 
            "long": "15.72927"
        }, 
        {
            "lat": "12.47554", 
            "name": "Massaguet", 
            "long": "15.43647"
        }
    ], 
    "08": [
        {
            "lat": "8.56667", 
            "name": "Moundou", 
            "long": "16.08333"
        }, 
        {
            "lat": "8.98327", 
            "name": "Benoy", 
            "long": "16.31991"
        }
    ], 
    "09": [
        {
            "lat": "8.65", 
            "name": "Doba", 
            "long": "16.85"
        }
    ], 
    "28": [
        {
            "lat": "17.18535", 
            "name": "Fada", 
            "long": "21.58114"
        }
    ], 
    "16": [
        {
            "lat": "10.28056", 
            "name": "Bongor", 
            "long": "15.37222"
        }
    ], 
    "01": [
        {
            "lat": "13.2954", 
            "name": "Oum Hadjer", 
            "long": "19.6966"
        }, 
        {
            "lat": "13.2154", 
            "name": "Ati", 
            "long": "18.3353"
        }
    ], 
    "15": [
        {
            "lat": "12.10672", 
            "name": "N'Djamena", 
            "long": "15.0444"
        }, 
        {
            "lat": "11.80909", 
            "name": "Dourbali", 
            "long": "15.86323"
        }
    ], 
    "14": [
        {
            "lat": "9.3952", 
            "name": "La&#239;", 
            "long": "16.2989"
        }, 
        {
            "lat": "9.30859", 
            "name": "Kelo", 
            "long": "15.80658"
        }
    ]
}