{
    "22": [
        {
            "lat": "39.90395", 
            "name": "Tongzhou", 
            "long": "116.66183"
        }, 
        {
            "lat": "39.93819", 
            "name": "Mentougou", 
            "long": "116.09307"
        }, 
        {
            "lat": "39.73598", 
            "name": "Liangxiang", 
            "long": "116.13295"
        }, 
        {
            "lat": "39.74025", 
            "name": "Daxing", 
            "long": "116.32693"
        }, 
        {
            "lat": "39.68699", 
            "name": "Fangshan", 
            "long": "115.99658"
        }, 
        {
            "lat": "39.9075", 
            "name": "Beijing", 
            "long": "116.39723"
        }, 
        {
            "lat": "40.12175", 
            "name": "Shunyi", 
            "long": "116.64783"
        }, 
        {
            "lat": "40.21612", 
            "name": "Changping", 
            "long": "116.23471"
        }
    ], 
    "02": [
        {
            "lat": "29.71877", 
            "name": "Zhuji", 
            "long": "120.24233"
        }, 
        {
            "lat": "31.0054", 
            "name": "Zhicheng", 
            "long": "119.90488"
        }, 
        {
            "lat": "29.9695", 
            "name": "Zhaobaoshan", 
            "long": "121.68753"
        }, 
        {
            "lat": "30.05", 
            "name": "Yuyao", 
            "long": "121.14944"
        }, 
        {
            "lat": "30.53629", 
            "name": "Xiashi", 
            "long": "120.68638"
        }, 
        {
            "lat": "30.16746", 
            "name": "Xiaoshan", 
            "long": "120.25883"
        }, 
        {
            "lat": "28.8547", 
            "name": "Xianju", 
            "long": "120.73168"
        }, 
        {
            "lat": "29.26778", 
            "name": "Dongyang", 
            "long": "120.22528"
        }, 
        {
            "lat": "27.99942", 
            "name": "Wenzhou", 
            "long": "120.66682"
        }, 
        {
            "lat": "28.37161", 
            "name": "Wenling", 
            "long": "121.36974"
        }, 
        {
            "lat": "29.95763", 
            "name": "Shenjiamen", 
            "long": "122.29802"
        }, 
        {
            "lat": "30.00237", 
            "name": "Shaoxing", 
            "long": "120.57864"
        }, 
        {
            "lat": "28.95944", 
            "name": "Quzhou", 
            "long": "118.86861"
        }, 
        {
            "lat": "29.45679", 
            "name": "Puyang", 
            "long": "119.88872"
        }, 
        {
            "lat": "29.28917", 
            "name": "Ninghai", 
            "long": "121.42472"
        }, 
        {
            "lat": "29.87819", 
            "name": "Ningbo", 
            "long": "121.54945"
        }, 
        {
            "lat": "28.58023", 
            "name": "Luqiao", 
            "long": "121.37491"
        }, 
        {
            "lat": "28.46042", 
            "name": "Lishui", 
            "long": "119.91029"
        }, 
        {
            "lat": "30.4225", 
            "name": "Linping", 
            "long": "120.29722"
        }, 
        {
            "lat": "28.84815", 
            "name": "Linhai", 
            "long": "121.12807"
        }, 
        {
            "lat": "29.21588", 
            "name": "Lanxi", 
            "long": "119.47156"
        }, 
        {
            "lat": "27.66583", 
            "name": "Kunyang", 
            "long": "120.56583"
        }, 
        {
            "lat": "27.43265", 
            "name": "Jinxiang", 
            "long": "120.60625"
        }, 
        {
            "lat": "29.10678", 
            "name": "Jinhua", 
            "long": "119.64421"
        }, 
        {
            "lat": "30.7522", 
            "name": "Jiaxing", 
            "long": "120.75"
        }, 
        {
            "lat": "30.8703", 
            "name": "Huzhou", 
            "long": "120.0933"
        }, 
        {
            "lat": "28.6501", 
            "name": "Huangyan", 
            "long": "121.26591"
        }, 
        {
            "lat": "30.29365", 
            "name": "Hangzhou", 
            "long": "120.16142"
        }, 
        {
            "lat": "28.68028", 
            "name": "Jiaojiang", 
            "long": "121.44278"
        }, 
        {
            "lat": "28.88162", 
            "name": "Guli", 
            "long": "120.03308"
        }, 
        {
            "lat": "30.05333", 
            "name": "Fuyang", 
            "long": "119.95194"
        }, 
        {
            "lat": "30.54485", 
            "name": "Deqing", 
            "long": "119.9599"
        }, 
        {
            "lat": "29.65628", 
            "name": "Fenghua", 
            "long": "121.4064"
        }, 
        {
            "lat": "29.31506", 
            "name": "Yiwu", 
            "long": "120.07676"
        }, 
        {
            "lat": "30.01556", 
            "name": "Shangyu", 
            "long": "120.87111"
        }, 
        {
            "lat": "29.98869", 
            "name": "Zhoushan", 
            "long": "122.20488"
        }, 
        {
            "lat": "29.99152", 
            "name": "Lianghu", 
            "long": "120.89845"
        }, 
        {
            "lat": "30.84918", 
            "name": "Jiashan", 
            "long": "120.92583"
        }
    ], 
    "25": [
        {
            "lat": "35.40056", 
            "name": "Zoucheng", 
            "long": "116.96556"
        }, 
        {
            "lat": "35.99472", 
            "name": "Mizhou", 
            "long": "119.3975"
        }, 
        {
            "lat": "36.81667", 
            "name": "Zhoucun", 
            "long": "117.81667"
        }, 
        {
            "lat": "37.36497", 
            "name": "Luofeng", 
            "long": "120.40997"
        }, 
        {
            "lat": "36.79056", 
            "name": "Zibo", 
            "long": "118.06333"
        }, 
        {
            "lat": "34.86472", 
            "name": "Zaozhuang", 
            "long": "117.55417"
        }, 
        {
            "lat": "34.92889", 
            "name": "Yucheng", 
            "long": "116.46528"
        }, 
        {
            "lat": "35.78472", 
            "name": "Yishui", 
            "long": "118.62806"
        }, 
        {
            "lat": "36.69667", 
            "name": "Qingzhou", 
            "long": "118.47972"
        }, 
        {
            "lat": "37.1566", 
            "name": "Yatou", 
            "long": "122.43762"
        }, 
        {
            "lat": "35.55278", 
            "name": "Yanzhou", 
            "long": "116.82861"
        }, 
        {
            "lat": "37.47649", 
            "name": "Yantai", 
            "long": "121.44081"
        }, 
        {
            "lat": "36.11056", 
            "name": "Yanggu", 
            "long": "115.77528"
        }, 
        {
            "lat": "35.90056", 
            "name": "Xintai", 
            "long": "117.75194"
        }, 
        {
            "lat": "36.7975", 
            "name": "Xindian", 
            "long": "118.29444"
        }, 
        {
            "lat": "36.24861", 
            "name": "Feicheng", 
            "long": "116.76583"
        }, 
        {
            "lat": "34.91611", 
            "name": "Xiazhuang", 
            "long": "118.63889"
        }, 
        {
            "lat": "34.80222", 
            "name": "Xiazhen", 
            "long": "117.11167"
        }, 
        {
            "lat": "35.7275", 
            "name": "Wenshang", 
            "long": "116.49611"
        }, 
        {
            "lat": "37.19723", 
            "name": "Tianfu", 
            "long": "122.05228"
        }, 
        {
            "lat": "37.50914", 
            "name": "Weihai", 
            "long": "122.11356"
        }, 
        {
            "lat": "36.71", 
            "name": "Weifang", 
            "long": "119.10194"
        }, 
        {
            "lat": "35.87861", 
            "name": "Yinzhu", 
            "long": "119.97528"
        }, 
        {
            "lat": "35.07706", 
            "name": "Tengzhou", 
            "long": "117.15176"
        }, 
        {
            "lat": "34.85", 
            "name": "Taozhuang", 
            "long": "117.33333"
        }, 
        {
            "lat": "36.18528", 
            "name": "Tai&#8217;an", 
            "long": "117.12"
        }, 
        {
            "lat": "36.95389", 
            "name": "Suozhen", 
            "long": "118.10472"
        }, 
        {
            "lat": "35.64889", 
            "name": "Sishui", 
            "long": "117.27583"
        }, 
        {
            "lat": "36.85917", 
            "name": "Laixi", 
            "long": "120.52694"
        }, 
        {
            "lat": "36.88", 
            "name": "Shouguang", 
            "long": "118.7375"
        }, 
        {
            "lat": "35.17111", 
            "name": "Shizilu", 
            "long": "118.82889"
        }, 
        {
            "lat": "36.24111", 
            "name": "Yanta", 
            "long": "115.66722"
        }, 
        {
            "lat": "34.79528", 
            "name": "Shancheng", 
            "long": "116.08167"
        }, 
        {
            "lat": "35.07528", 
            "name": "Shanting", 
            "long": "117.45778"
        }, 
        {
            "lat": "35.4275", 
            "name": "Rizhao", 
            "long": "119.45528"
        }, 
        {
            "lat": "35.59667", 
            "name": "Qufu", 
            "long": "116.99111"
        }, 
        {
            "lat": "37.30553", 
            "name": "Zhuangyuan", 
            "long": "120.82747"
        }, 
        {
            "lat": "36.06605", 
            "name": "Qingdao", 
            "long": "120.36939"
        }, 
        {
            "lat": "36.28306", 
            "name": "Pingyin", 
            "long": "116.44528"
        }, 
        {
            "lat": "35.50056", 
            "name": "Pingyi", 
            "long": "117.63083"
        }, 
        {
            "lat": "36.78444", 
            "name": "Pingdu", 
            "long": "119.94639"
        }, 
        {
            "lat": "35.76417", 
            "name": "Ningyang", 
            "long": "116.79139"
        }, 
        {
            "lat": "37.38422", 
            "name": "Ninghai", 
            "long": "121.60859"
        }, 
        {
            "lat": "36.18478", 
            "name": "Nanma", 
            "long": "118.15486"
        }, 
        {
            "lat": "36.74833", 
            "name": "Nanding", 
            "long": "118.05583"
        }, 
        {
            "lat": "36.71667", 
            "name": "Mingshui", 
            "long": "117.5"
        }, 
        {
            "lat": "35.70694", 
            "name": "Mengyin", 
            "long": "117.92639"
        }, 
        {
            "lat": "37.65181", 
            "name": "Longgang", 
            "long": "120.33063"
        }, 
        {
            "lat": "35.06306", 
            "name": "Linyi", 
            "long": "118.34278"
        }, 
        {
            "lat": "36.51556", 
            "name": "Linqu", 
            "long": "118.53972"
        }, 
        {
            "lat": "36.84032", 
            "name": "Qingnian", 
            "long": "115.71183"
        }, 
        {
            "lat": "36.45596", 
            "name": "Liaocheng", 
            "long": "115.97766"
        }, 
        {
            "lat": "37.18073", 
            "name": "Weichanglu", 
            "long": "119.94217"
        }, 
        {
            "lat": "36.97583", 
            "name": "Laiyang", 
            "long": "120.71361"
        }, 
        {
            "lat": "36.19278", 
            "name": "Laiwu", 
            "long": "117.65694"
        }, 
        {
            "lat": "35.39472", 
            "name": "Juye", 
            "long": "116.08833"
        }, 
        {
            "lat": "35.405", 
            "name": "Jining", 
            "long": "116.58139"
        }, 
        {
            "lat": "36.66833", 
            "name": "Jinan", 
            "long": "116.99722"
        }, 
        {
            "lat": "36.38972", 
            "name": "Jimo", 
            "long": "120.46222"
        }, 
        {
            "lat": "35.54278", 
            "name": "Jiehu", 
            "long": "118.455"
        }, 
        {
            "lat": "36.28389", 
            "name": "Jiaozhou", 
            "long": "120.00333"
        }, 
        {
            "lat": "35.23929", 
            "name": "Heze", 
            "long": "115.47358"
        }, 
        {
            "lat": "36.77083", 
            "name": "Hanting", 
            "long": "119.21083"
        }, 
        {
            "lat": "36.38333", 
            "name": "Gaomi", 
            "long": "119.75278"
        }, 
        {
            "lat": "37.49583", 
            "name": "Qingyang", 
            "long": "121.25806"
        }, 
        {
            "lat": "35.26056", 
            "name": "Feicheng", 
            "long": "117.9675"
        }, 
        {
            "lat": "37.46271", 
            "name": "Shengli", 
            "long": "118.49165"
        }, 
        {
            "lat": "35.85", 
            "name": "Dongdu", 
            "long": "117.7"
        }, 
        {
            "lat": "36.77667", 
            "name": "Dongcun", 
            "long": "121.15972"
        }, 
        {
            "lat": "35.07436", 
            "name": "Dingtao", 
            "long": "115.56582"
        }, 
        {
            "lat": "37.45127", 
            "name": "Dezhou", 
            "long": "116.31046"
        }, 
        {
            "lat": "37.80822", 
            "name": "Dengzhou", 
            "long": "120.75908"
        }, 
        {
            "lat": "35.57944", 
            "name": "Chengyang", 
            "long": "118.83278"
        }, 
        {
            "lat": "36.5575", 
            "name": "Changqing", 
            "long": "116.72722"
        }, 
        {
            "lat": "36.48333", 
            "name": "Boshan", 
            "long": "117.83333"
        }, 
        {
            "lat": "37.36667", 
            "name": "Binzhou", 
            "long": "118.01667"
        }, 
        {
            "lat": "34.84861", 
            "name": "Bianzhuang", 
            "long": "118.04472"
        }, 
        {
            "lat": "36.43417", 
            "name": "Anqiu", 
            "long": "119.1925"
        }, 
        {
            "lat": "35.91222", 
            "name": "Zhoucheng", 
            "long": "116.31167"
        }, 
        {
            "lat": "35.99502", 
            "name": "Zhu Cheng City", 
            "long": "119.40259"
        }
    ], 
    "26": [
        {
            "lat": "34.06153", 
            "name": "Yuxia", 
            "long": "108.62905"
        }, 
        {
            "lat": "38.29056", 
            "name": "Yulin", 
            "long": "109.74944"
        }, 
        {
            "lat": "34.65918", 
            "name": "Yanliang", 
            "long": "109.22921"
        }, 
        {
            "lat": "32.68", 
            "name": "Ankang", 
            "long": "109.01722"
        }, 
        {
            "lat": "34.33778", 
            "name": "Xianyang", 
            "long": "108.70261"
        }, 
        {
            "lat": "34.25833", 
            "name": "Xi&#8217;an", 
            "long": "108.92861"
        }, 
        {
            "lat": "34.50355", 
            "name": "Weinan", 
            "long": "109.50891"
        }, 
        {
            "lat": "35.08056", 
            "name": "Tongchuan", 
            "long": "109.08972"
        }, 
        {
            "lat": "34.37803", 
            "name": "Lintong", 
            "long": "109.20892"
        }, 
        {
            "lat": "33.07278", 
            "name": "Hanzhong", 
            "long": "107.03028"
        }, 
        {
            "lat": "35.46028", 
            "name": "Hancheng", 
            "long": "110.42917"
        }, 
        {
            "lat": "34.36591", 
            "name": "Guozhen", 
            "long": "107.35904"
        }
    ], 
    "01": [
        {
            "lat": "32.62945", 
            "name": "Yingshang Chengguanzhen", 
            "long": "116.27013"
        }, 
        {
            "lat": "30.9525", 
            "name": "Xuanzhou", 
            "long": "118.75528"
        }, 
        {
            "lat": "31.9925", 
            "name": "Wuyang", 
            "long": "116.24722"
        }, 
        {
            "lat": "31.33728", 
            "name": "Wuhu", 
            "long": "118.37351"
        }, 
        {
            "lat": "29.60077", 
            "name": "Wucheng", 
            "long": "118.17495"
        }, 
        {
            "lat": "29.71139", 
            "name": "Huangshan", 
            "long": "118.3125"
        }, 
        {
            "lat": "30.95", 
            "name": "Wusong", 
            "long": "117.78333"
        }, 
        {
            "lat": "34.43278", 
            "name": "Tangzhai", 
            "long": "116.59111"
        }, 
        {
            "lat": "33.63611", 
            "name": "Suzhou", 
            "long": "116.97889"
        }, 
        {
            "lat": "33.89067", 
            "name": "Suixi", 
            "long": "116.77473"
        }, 
        {
            "lat": "32.78017", 
            "name": "Mingguang", 
            "long": "117.96378"
        }, 
        {
            "lat": "33.26611", 
            "name": "Mengcheng Chengguanzhen", 
            "long": "116.56605"
        }, 
        {
            "lat": "31.23357", 
            "name": "Lucheng", 
            "long": "117.28057"
        }, 
        {
            "lat": "33.26338", 
            "name": "Jieshou", 
            "long": "115.36108"
        }, 
        {
            "lat": "32.35473", 
            "name": "Huoqiu Chengguanzhen", 
            "long": "116.2939"
        }, 
        {
            "lat": "32.95893", 
            "name": "Huaiyuan Chengguanzhen", 
            "long": "117.16566"
        }, 
        {
            "lat": "32.62639", 
            "name": "Huainan", 
            "long": "116.99694"
        }, 
        {
            "lat": "33.97444", 
            "name": "Huaibei", 
            "long": "116.79167"
        }, 
        {
            "lat": "31.86389", 
            "name": "Hefei", 
            "long": "117.28083"
        }, 
        {
            "lat": "32.9", 
            "name": "Fuyang", 
            "long": "115.81667"
        }, 
        {
            "lat": "32.62082", 
            "name": "Datong", 
            "long": "117.06319"
        }, 
        {
            "lat": "31.56055", 
            "name": "Gushu", 
            "long": "118.48147"
        }, 
        {
            "lat": "32.32194", 
            "name": "Chuzhou", 
            "long": "118.29778"
        }, 
        {
            "lat": "30.66134", 
            "name": "Chizhou", 
            "long": "117.47783"
        }, 
        {
            "lat": "31.6", 
            "name": "Chaohu", 
            "long": "117.86667"
        }, 
        {
            "lat": "33.87722", 
            "name": "Bozhou", 
            "long": "115.77028"
        }, 
        {
            "lat": "32.94083", 
            "name": "Bengbu", 
            "long": "117.36083"
        }, 
        {
            "lat": "30.51365", 
            "name": "Anqing", 
            "long": "117.04723"
        }
    ], 
    "06": [
        {
            "lat": "36.62554", 
            "name": "Xining", 
            "long": "101.75739"
        }
    ], 
    "21": [
        {
            "lat": "38.46806", 
            "name": "Yinchuan", 
            "long": "106.27306"
        }, 
        {
            "lat": "39.23333", 
            "name": "Shizuishan", 
            "long": "106.76944"
        }, 
        {
            "lat": "39.23417", 
            "name": "Shitanjing", 
            "long": "106.34389"
        }, 
        {
            "lat": "39.04194", 
            "name": "Dawukou", 
            "long": "106.39583"
        }
    ], 
    "04": [
        {
            "lat": "31.11788", 
            "name": "Zhouzhuang", 
            "long": "120.84427"
        }, 
        {
            "lat": "33.70389", 
            "name": "Zhongxing", 
            "long": "118.67917"
        }, 
        {
            "lat": "32.28034", 
            "name": "Zhenzhou", 
            "long": "119.16999"
        }, 
        {
            "lat": "32.21086", 
            "name": "Zhenjiang", 
            "long": "119.45508"
        }, 
        {
            "lat": "32.93917", 
            "name": "Xinghua", 
            "long": "119.83417"
        }, 
        {
            "lat": "31.37762", 
            "name": "Kunshan", 
            "long": "120.95431"
        }, 
        {
            "lat": "34.31139", 
            "name": "Pizhou", 
            "long": "117.95028"
        }, 
        {
            "lat": "31.36059", 
            "name": "Yicheng", 
            "long": "119.82016"
        }, 
        {
            "lat": "32.39722", 
            "name": "Yangzhou", 
            "long": "119.43583"
        }, 
        {
            "lat": "31.865", 
            "name": "Zhangjiagang", 
            "long": "120.53889"
        }, 
        {
            "lat": "33.3575", 
            "name": "Yancheng", 
            "long": "120.1573"
        }, 
        {
            "lat": "34.18045", 
            "name": "Tongshan", 
            "long": "117.15707"
        }, 
        {
            "lat": "34.59972", 
            "name": "Xinpu", 
            "long": "119.15944"
        }, 
        {
            "lat": "32.03244", 
            "name": "Xiaolingwei", 
            "long": "118.854"
        }, 
        {
            "lat": "32.42806", 
            "name": "Xiann&#252;", 
            "long": "119.56048"
        }, 
        {
            "lat": "31.56887", 
            "name": "Wuxi", 
            "long": "120.28857"
        }, 
        {
            "lat": "32.49069", 
            "name": "Taizhou", 
            "long": "119.90812"
        }, 
        {
            "lat": "32.16667", 
            "name": "Taixing", 
            "long": "120.01361"
        }, 
        {
            "lat": "33.8963", 
            "name": "Suicheng", 
            "long": "117.93307"
        }, 
        {
            "lat": "33.25306", 
            "name": "Qinnan", 
            "long": "119.91333"
        }, 
        {
            "lat": "33.58861", 
            "name": "Huai'an", 
            "long": "119.01917"
        }, 
        {
            "lat": "32.03028", 
            "name": "Nantong", 
            "long": "120.87472"
        }, 
        {
            "lat": "32.06167", 
            "name": "Nanjing", 
            "long": "118.77778"
        }, 
        {
            "lat": "31.42813", 
            "name": "Licheng", 
            "long": "119.48353"
        }, 
        {
            "lat": "32.31737", 
            "name": "Juegang", 
            "long": "121.18552"
        }, 
        {
            "lat": "32.08982", 
            "name": "Jinsha", 
            "long": "121.07355"
        }, 
        {
            "lat": "32.50611", 
            "name": "Jiangyan", 
            "long": "120.14278"
        }, 
        {
            "lat": "31.53429", 
            "name": "Hutang", 
            "long": "119.49"
        }, 
        {
            "lat": "31.81111", 
            "name": "Huilong", 
            "long": "121.655"
        }, 
        {
            "lat": "33.7722", 
            "name": "Hede", 
            "long": "120.26176"
        }, 
        {
            "lat": "34.58167", 
            "name": "Haizhou", 
            "long": "119.12889"
        }, 
        {
            "lat": "33.66972", 
            "name": "Guiren", 
            "long": "118.18889"
        }, 
        {
            "lat": "32.78933", 
            "name": "Gaoyou", 
            "long": "119.44182"
        }, 
        {
            "lat": "34.0175", 
            "name": "Gaogou", 
            "long": "119.18861"
        }, 
        {
            "lat": "34.70388", 
            "name": "Fengxian", 
            "long": "116.58717"
        }, 
        {
            "lat": "32.85231", 
            "name": "Dongtai", 
            "long": "120.30947"
        }, 
        {
            "lat": "33.99972", 
            "name": "Dongkan", 
            "long": "119.83083"
        }, 
        {
            "lat": "33.19973", 
            "name": "Dazhong", 
            "long": "120.4578"
        }, 
        {
            "lat": "31.91102", 
            "name": "Jiangyin", 
            "long": "120.26302"
        }, 
        {
            "lat": "31.77359", 
            "name": "Changzhou", 
            "long": "119.95401"
        }, 
        {
            "lat": "33.22917", 
            "name": "Baoying", 
            "long": "119.30917"
        }, 
        {
            "lat": "31.30408", 
            "name": "Suzhou", 
            "long": "120.59538"
        }, 
        {
            "lat": "31.25597", 
            "name": "Mudu", 
            "long": "120.51857"
        }, 
        {
            "lat": "31.1933", 
            "name": "Songling", 
            "long": "120.71758"
        }, 
        {
            "lat": "31.64615", 
            "name": "Changshu City", 
            "long": "120.74221"
        }
    ], 
    "23": [
        {
            "lat": "31.03595", 
            "name": "Songjiang", 
            "long": "121.2146"
        }, 
        {
            "lat": "31.22222", 
            "name": "Shanghai", 
            "long": "121.45806"
        }
    ], 
    "08": [
        {
            "lat": "45.68333", 
            "name": "Zhaozhou", 
            "long": "125.31667"
        }, 
        {
            "lat": "45.5", 
            "name": "Zhaoyuan", 
            "long": "125.13333"
        }, 
        {
            "lat": "46.06771", 
            "name": "Zhaodong", 
            "long": "125.98263"
        }, 
        {
            "lat": "47.85306", 
            "name": "Youhao", 
            "long": "128.83565"
        }, 
        {
            "lat": "46.31618", 
            "name": "Yilan", 
            "long": "129.55455"
        }, 
        {
            "lat": "47.72143", 
            "name": "Yichun", 
            "long": "128.87529"
        }, 
        {
            "lat": "48.28701", 
            "name": "Xinqing", 
            "long": "129.52337"
        }, 
        {
            "lat": "44.91428", 
            "name": "Wuchang", 
            "long": "127.15001"
        }, 
        {
            "lat": "46.83283", 
            "name": "Wangkui", 
            "long": "126.47768"
        }, 
        {
            "lat": "46.98043", 
            "name": "Tieli", 
            "long": "128.04497"
        }, 
        {
            "lat": "46.38909", 
            "name": "Tailai", 
            "long": "123.41371"
        }, 
        {
            "lat": "46.86135", 
            "name": "Taikang", 
            "long": "124.442"
        }, 
        {
            "lat": "52.33333", 
            "name": "Tahe", 
            "long": "124.73333"
        }, 
        {
            "lat": "47.24805", 
            "name": "Suileng", 
            "long": "127.09535"
        }, 
        {
            "lat": "46.63954", 
            "name": "Suihua", 
            "long": "126.99508"
        }, 
        {
            "lat": "44.39982", 
            "name": "Suifenhe", 
            "long": "131.14775"
        }, 
        {
            "lat": "46.63611", 
            "name": "Shuangyashan", 
            "long": "131.15389"
        }, 
        {
            "lat": "45.35", 
            "name": "Shuangcheng", 
            "long": "126.28333"
        }, 
        {
            "lat": "44.7", 
            "name": "Shanhetun", 
            "long": "127.2"
        }, 
        {
            "lat": "45.21406", 
            "name": "Shangzhi", 
            "long": "127.97426"
        }, 
        {
            "lat": "46.64142", 
            "name": "Fendou", 
            "long": "124.86283"
        }, 
        {
            "lat": "45.76195", 
            "name": "Taihe", 
            "long": "130.85131"
        }, 
        {
            "lat": "47.34088", 
            "name": "Qiqihar", 
            "long": "123.96045"
        }, 
        {
            "lat": "46.68469", 
            "name": "Qinggang", 
            "long": "126.10595"
        }, 
        {
            "lat": "47.51667", 
            "name": "Nianzishan", 
            "long": "122.88333"
        }, 
        {
            "lat": "49.17414", 
            "name": "Nenjiang", 
            "long": "125.21774"
        }, 
        {
            "lat": "48.48333", 
            "name": "Nehe", 
            "long": "124.83333"
        }, 
        {
            "lat": "47.13333", 
            "name": "Lianhe", 
            "long": "129.27426"
        }, 
        {
            "lat": "44.58333", 
            "name": "Mudanjiang", 
            "long": "129.6"
        }, 
        {
            "lat": "45.55", 
            "name": "Mishan", 
            "long": "131.88333"
        }, 
        {
            "lat": "47.1815", 
            "name": "Mingshui", 
            "long": "125.90027"
        }, 
        {
            "lat": "47.33072", 
            "name": "Longjiang", 
            "long": "123.17816"
        }, 
        {
            "lat": "46.53168", 
            "name": "Longfeng", 
            "long": "125.1038"
        }, 
        {
            "lat": "45.28606", 
            "name": "Linkou", 
            "long": "130.26151"
        }, 
        {
            "lat": "46.56694", 
            "name": "Lingdong", 
            "long": "131.14528"
        }, 
        {
            "lat": "46.25785", 
            "name": "Lanxi", 
            "long": "126.28269"
        }, 
        {
            "lat": "46.94985", 
            "name": "Langxiang", 
            "long": "128.86849"
        }, 
        {
            "lat": "45.30109", 
            "name": "Jixi", 
            "long": "130.95718"
        }, 
        {
            "lat": "45.21667", 
            "name": "Jidong", 
            "long": "131.08333"
        }, 
        {
            "lat": "46.79927", 
            "name": "Jiamusi", 
            "long": "130.31633"
        }, 
        {
            "lat": "47.20417", 
            "name": "Hulan Ergi", 
            "long": "123.63333"
        }, 
        {
            "lat": "45.98333", 
            "name": "Hulan", 
            "long": "126.6"
        }, 
        {
            "lat": "46.2207", 
            "name": "Huanan", 
            "long": "130.525"
        }, 
        {
            "lat": "46.40124", 
            "name": "Honggang", 
            "long": "124.88322"
        }, 
        {
            "lat": "45.21235", 
            "name": "Fendou", 
            "long": "130.90254"
        }, 
        {
            "lat": "50.24413", 
            "name": "Heihe", 
            "long": "127.49016"
        }, 
        {
            "lat": "47.35118", 
            "name": "Hegang", 
            "long": "130.30012"
        }, 
        {
            "lat": "45.75", 
            "name": "Harbin", 
            "long": "126.65"
        }, 
        {
            "lat": "47.4565", 
            "name": "Hailun", 
            "long": "126.95368"
        }, 
        {
            "lat": "44.57149", 
            "name": "Hailin", 
            "long": "129.38539"
        }, 
        {
            "lat": "47.91472", 
            "name": "Gannan", 
            "long": "123.50306"
        }, 
        {
            "lat": "48.36306", 
            "name": "Fuyuan", 
            "long": "134.28917"
        }, 
        {
            "lat": "47.79756", 
            "name": "Fuyu", 
            "long": "124.45731"
        }, 
        {
            "lat": "46.72167", 
            "name": "Fuli", 
            "long": "131.13944"
        }, 
        {
            "lat": "47.26", 
            "name": "Fujin", 
            "long": "132.03222"
        }, 
        {
            "lat": "47.57549", 
            "name": "Fengxiang", 
            "long": "130.82306"
        }, 
        {
            "lat": "44.06219", 
            "name": "Dongning", 
            "long": "131.12075"
        }, 
        {
            "lat": "45.36088", 
            "name": "Dongxing", 
            "long": "130.78679"
        }, 
        {
            "lat": "46.58333", 
            "name": "Daqing", 
            "long": "125"
        }, 
        {
            "lat": "45.33333", 
            "name": "Chengzihe", 
            "long": "131.06667"
        }, 
        {
            "lat": "44.7598", 
            "name": "Chaihe", 
            "long": "129.67826"
        }, 
        {
            "lat": "45.75279", 
            "name": "Boli", 
            "long": "130.57211"
        }, 
        {
            "lat": "45.75281", 
            "name": "Binzhou", 
            "long": "127.47986"
        }, 
        {
            "lat": "48.26667", 
            "name": "Bei&#8217;an", 
            "long": "126.6"
        }, 
        {
            "lat": "46.07556", 
            "name": "Bayan", 
            "long": "127.3984"
        }, 
        {
            "lat": "46.55861", 
            "name": "Baoshan", 
            "long": "131.42444"
        }, 
        {
            "lat": "46.33167", 
            "name": "Baoqing", 
            "long": "132.21111"
        }, 
        {
            "lat": "44.91738", 
            "name": "Bamiantong", 
            "long": "130.52"
        }, 
        {
            "lat": "47.60605", 
            "name": "Baiquan", 
            "long": "126.08481"
        }, 
        {
            "lat": "46.40202", 
            "name": "Anda", 
            "long": "125.31454"
        }, 
        {
            "lat": "45.54545", 
            "name": "Acheng", 
            "long": "126.97703"
        }
    ], 
    "09": [
        {
            "lat": "32.97944", 
            "name": "Zhumadian", 
            "long": "114.02944"
        }, 
        {
            "lat": "34.45", 
            "name": "Shangqiu", 
            "long": "115.65"
        }, 
        {
            "lat": "33.63333", 
            "name": "Zhoukou", 
            "long": "114.63333"
        }, 
        {
            "lat": "34.75778", 
            "name": "Zhengzhou", 
            "long": "113.64861"
        }, 
        {
            "lat": "36.09944", 
            "name": "Anyang", 
            "long": "114.32889"
        }, 
        {
            "lat": "34.16278", 
            "name": "Yuzhou", 
            "long": "113.46389"
        }, 
        {
            "lat": "33.44743", 
            "name": "Yunyang", 
            "long": "112.71422"
        }, 
        {
            "lat": "34.73806", 
            "name": "Yima", 
            "long": "111.88389"
        }, 
        {
            "lat": "35.81139", 
            "name": "Yigou", 
            "long": "114.31667"
        }, 
        {
            "lat": "34.01667", 
            "name": "Xuchang", 
            "long": "113.81667"
        }, 
        {
            "lat": "35.16278", 
            "name": "Xixiang", 
            "long": "112.865"
        }, 
        {
            "lat": "32.51861", 
            "name": "Xinye", 
            "long": "112.35222"
        }, 
        {
            "lat": "32.12278", 
            "name": "Xinyang", 
            "long": "114.06556"
        }, 
        {
            "lat": "35.30889", 
            "name": "Xinxiang", 
            "long": "113.86722"
        }, 
        {
            "lat": "33.78333", 
            "name": "Xihua", 
            "long": "114.51667"
        }, 
        {
            "lat": "34.76", 
            "name": "Gongyi", 
            "long": "112.97139"
        }, 
        {
            "lat": "33.84703", 
            "name": "Xiangcheng", 
            "long": "113.4778"
        }, 
        {
            "lat": "32.68833", 
            "name": "Tanghe", 
            "long": "112.8275"
        }, 
        {
            "lat": "33.00111", 
            "name": "Runan", 
            "long": "114.35417"
        }, 
        {
            "lat": "35.70506", 
            "name": "Puyang Chengguanzhen", 
            "long": "115.01409"
        }, 
        {
            "lat": "33.73847", 
            "name": "Pingdingshan", 
            "long": "113.30119"
        }, 
        {
            "lat": "32.99472", 
            "name": "Nanyang", 
            "long": "112.53278"
        }, 
        {
            "lat": "32.45861", 
            "name": "Minggang", 
            "long": "114.04861"
        }, 
        {
            "lat": "34.68361", 
            "name": "Luoyang", 
            "long": "112.45361"
        }, 
        {
            "lat": "33.57167", 
            "name": "Luohe", 
            "long": "114.03528"
        }, 
        {
            "lat": "34.7986", 
            "name": "Kaifeng", 
            "long": "114.30742"
        }, 
        {
            "lat": "33.73333", 
            "name": "Jishui", 
            "long": "115.4"
        }, 
        {
            "lat": "35.23972", 
            "name": "Jiaozuo", 
            "long": "113.23306"
        }, 
        {
            "lat": "32.12722", 
            "name": "Huangchuan", 
            "long": "115.03944"
        }, 
        {
            "lat": "33.43333", 
            "name": "Huaidian", 
            "long": "115.03333"
        }, 
        {
            "lat": "35.89917", 
            "name": "Hebi", 
            "long": "114.1925"
        }, 
        {
            "lat": "32.68222", 
            "name": "Dengzhou", 
            "long": "112.08194"
        }, 
        {
            "lat": "34.45528", 
            "name": "Dengfeng", 
            "long": "113.02806"
        }, 
        {
            "lat": "35.56389", 
            "name": "Huaxian", 
            "long": "114.50583"
        }, 
        {
            "lat": "33.63333", 
            "name": "Dancheng", 
            "long": "115.18333"
        }
    ], 
    "28": [
        {
            "lat": "39.1375", 
            "name": "Yangliuqing", 
            "long": "116.99972"
        }, 
        {
            "lat": "39.36389", 
            "name": "Yangcun", 
            "long": "117.06028"
        }, 
        {
            "lat": "38.985", 
            "name": "Xianshuigu", 
            "long": "117.38278"
        }, 
        {
            "lat": "39.14222", 
            "name": "Tianjin", 
            "long": "117.17667"
        }, 
        {
            "lat": "39.02111", 
            "name": "Tanggu", 
            "long": "117.64694"
        }, 
        {
            "lat": "39.24889", 
            "name": "Hangu", 
            "long": "117.78917"
        }
    ], 
    "29": [
        {
            "lat": "24.355", 
            "name": "Yuxi", 
            "long": "102.54222"
        }, 
        {
            "lat": "24.51667", 
            "name": "Zhongshu", 
            "long": "103.76667"
        }, 
        {
            "lat": "27.31667", 
            "name": "Zhaotong", 
            "long": "103.71667"
        }, 
        {
            "lat": "21.99102", 
            "name": "Jinghong", 
            "long": "100.73409"
        }, 
        {
            "lat": "25.48333", 
            "name": "Qujing", 
            "long": "103.78333"
        }, 
        {
            "lat": "24.40417", 
            "name": "Miyang", 
            "long": "103.44278"
        }, 
        {
            "lat": "25.03333", 
            "name": "Majie", 
            "long": "102.63611"
        }, 
        {
            "lat": "24.67193", 
            "name": "Longquan", 
            "long": "102.1613"
        }, 
        {
            "lat": "24.92271", 
            "name": "Lianran", 
            "long": "102.48496"
        }, 
        {
            "lat": "25.03889", 
            "name": "Kunming", 
            "long": "102.71833"
        }, 
        {
            "lat": "23.69767", 
            "name": "Kaiyuan", 
            "long": "103.30372"
        }, 
        {
            "lat": "23.3695", 
            "name": "Kaihua", 
            "long": "104.27721"
        }, 
        {
            "lat": "24.77985", 
            "name": "Haikou", 
            "long": "102.57548"
        }, 
        {
            "lat": "23.36085", 
            "name": "Gejiu", 
            "long": "103.15372"
        }, 
        {
            "lat": "26.86879", 
            "name": "Lijiang", 
            "long": "100.22072"
        }, 
        {
            "lat": "25.58474", 
            "name": "Dali", 
            "long": "100.21229"
        }, 
        {
            "lat": "23.01279", 
            "name": "Mabai", 
            "long": "104.45081"
        }, 
        {
            "lat": "24.81878", 
            "name": "Shilin", 
            "long": "103.33237"
        }, 
        {
            "lat": "27.82511", 
            "name": "Shangri-La", 
            "long": "99.70779"
        }, 
        {
            "lat": "23.36306", 
            "name": "Wenshan City", 
            "long": "104.25047"
        }
    ], 
    "05": [
        {
            "lat": "45.84955", 
            "name": "Zhenlai", 
            "long": "123.2973"
        }, 
        {
            "lat": "43.50639", 
            "name": "Zhengjiatun", 
            "long": "123.50639"
        }, 
        {
            "lat": "44.8", 
            "name": "Yushu", 
            "long": "126.53333"
        }, 
        {
            "lat": "43.29194", 
            "name": "Yantongshan", 
            "long": "126.00944"
        }, 
        {
            "lat": "42.9075", 
            "name": "Yanji", 
            "long": "129.50778"
        }, 
        {
            "lat": "43.95611", 
            "name": "Xinglongshan", 
            "long": "125.46611"
        }, 
        {
            "lat": "43.32179", 
            "name": "Wangqing", 
            "long": "129.76342"
        }, 
        {
            "lat": "42.05972", 
            "name": "Hepingjie", 
            "long": "126.91583"
        }, 
        {
            "lat": "42.96611", 
            "name": "Tumen", 
            "long": "129.8425"
        }, 
        {
            "lat": "45.33333", 
            "name": "Guangming", 
            "long": "122.78333"
        }, 
        {
            "lat": "42.1859", 
            "name": "Songjianghe", 
            "long": "127.47895"
        }, 
        {
            "lat": "43.16143", 
            "name": "Siping", 
            "long": "124.37785"
        }, 
        {
            "lat": "44.41667", 
            "name": "Shulan", 
            "long": "126.95"
        }, 
        {
            "lat": "43.52417", 
            "name": "Shuangyang", 
            "long": "125.67361"
        }, 
        {
            "lat": "42.08167", 
            "name": "Sanchazi", 
            "long": "126.60028"
        }, 
        {
            "lat": "45.11711", 
            "name": "Qianguo", 
            "long": "124.85676"
        }, 
        {
            "lat": "42.94222", 
            "name": "Panshi", 
            "long": "126.05611"
        }, 
        {
            "lat": "43.10694", 
            "name": "Mingyue", 
            "long": "128.92167"
        }, 
        {
            "lat": "42.52722", 
            "name": "Meihekou", 
            "long": "125.67528"
        }, 
        {
            "lat": "42.77139", 
            "name": "Longjing", 
            "long": "129.42333"
        }, 
        {
            "lat": "42.24007", 
            "name": "Liuhe", 
            "long": "125.71717"
        }, 
        {
            "lat": "43.30472", 
            "name": "Lishu", 
            "long": "124.32778"
        }, 
        {
            "lat": "41.80694", 
            "name": "Linjiang", 
            "long": "126.90778"
        }, 
        {
            "lat": "42.90361", 
            "name": "Liaoyuan", 
            "long": "125.13583"
        }, 
        {
            "lat": "44.81351", 
            "name": "Kaitong", 
            "long": "123.15"
        }, 
        {
            "lat": "44.1525", 
            "name": "Jiutai", 
            "long": "125.83278"
        }, 
        {
            "lat": "44.31667", 
            "name": "Jishu", 
            "long": "126.8"
        }, 
        {
            "lat": "43.85083", 
            "name": "Jilin", 
            "long": "126.56028"
        }, 
        {
            "lat": "43.72145", 
            "name": "Minzhu", 
            "long": "127.33401"
        }, 
        {
            "lat": "42.8675", 
            "name": "Hunchun", 
            "long": "130.35806"
        }, 
        {
            "lat": "42.6225", 
            "name": "Huinan", 
            "long": "126.26139"
        }, 
        {
            "lat": "43.55833", 
            "name": "Huangnihe", 
            "long": "128.02389"
        }, 
        {
            "lat": "42.96333", 
            "name": "Huadian", 
            "long": "126.74778"
        }, 
        {
            "lat": "42.53974", 
            "name": "Helong", 
            "long": "128.99722"
        }, 
        {
            "lat": "43.50075", 
            "name": "Gongzhuling", 
            "long": "124.81979"
        }, 
        {
            "lat": "45.18333", 
            "name": "Fuyu", 
            "long": "124.81667"
        }, 
        {
            "lat": "41.77639", 
            "name": "Erdaojiang", 
            "long": "126.03194"
        }, 
        {
            "lat": "43.3725", 
            "name": "Dunhua", 
            "long": "128.2425"
        }, 
        {
            "lat": "42.64031", 
            "name": "Dongfeng", 
            "long": "125.51176"
        }, 
        {
            "lat": "44.53333", 
            "name": "Dehui", 
            "long": "125.7"
        }, 
        {
            "lat": "43.30667", 
            "name": "Dashitou", 
            "long": "128.51139"
        }, 
        {
            "lat": "45.5", 
            "name": "Dalai", 
            "long": "124.3"
        }, 
        {
            "lat": "42.66223", 
            "name": "Chaoyang", 
            "long": "126.0263"
        }, 
        {
            "lat": "44.26532", 
            "name": "Changling", 
            "long": "124.00045"
        }, 
        {
            "lat": "43.88", 
            "name": "Changchun", 
            "long": "125.32278"
        }, 
        {
            "lat": "43.58333", 
            "name": "Baishishan", 
            "long": "127.56667"
        }, 
        {
            "lat": "45.60746", 
            "name": "Baicheng", 
            "long": "122.82076"
        }, 
        {
            "lat": "41.93853", 
            "name": "Baishan", 
            "long": "126.41965"
        }
    ], 
    "24": [
        {
            "lat": "35.02306", 
            "name": "Yuncheng", 
            "long": "110.99278"
        }, 
        {
            "lat": "37.68028", 
            "name": "Yuci", 
            "long": "112.73194"
        }, 
        {
            "lat": "38.71528", 
            "name": "Yuanping", 
            "long": "112.7575"
        }, 
        {
            "lat": "37.8575", 
            "name": "Yangquan", 
            "long": "113.56333"
        }, 
        {
            "lat": "38.40917", 
            "name": "Xinzhou", 
            "long": "112.73333"
        }, 
        {
            "lat": "36.49889", 
            "name": "Xinzhi", 
            "long": "111.70472"
        }, 
        {
            "lat": "37.86944", 
            "name": "Taiyuan", 
            "long": "112.56028"
        }, 
        {
            "lat": "37.2025", 
            "name": "Gutao", 
            "long": "112.17806"
        }, 
        {
            "lat": "36.08889", 
            "name": "Linfen", 
            "long": "111.51889"
        }, 
        {
            "lat": "35.50222", 
            "name": "Jincheng", 
            "long": "112.83278"
        }, 
        {
            "lat": "37.02444", 
            "name": "Jiexiu", 
            "long": "111.9125"
        }, 
        {
            "lat": "35.20889", 
            "name": "Changzhi", 
            "long": "111.73861"
        }, 
        {
            "lat": "40.09361", 
            "name": "Datong", 
            "long": "113.29139"
        }
    ], 
    "03": [
        {
            "lat": "27.83333", 
            "name": "Yichun", 
            "long": "114.4"
        }, 
        {
            "lat": "28.45322", 
            "name": "Shangrao", 
            "long": "117.9686"
        }, 
        {
            "lat": "28.28857", 
            "name": "Guixi", 
            "long": "117.21329"
        }, 
        {
            "lat": "27.80429", 
            "name": "Xinyu", 
            "long": "114.93335"
        }, 
        {
            "lat": "28.99242", 
            "name": "Poyang", 
            "long": "116.66754"
        }, 
        {
            "lat": "27.61672", 
            "name": "Pingxiang", 
            "long": "113.85353"
        }, 
        {
            "lat": "28.68333", 
            "name": "Nanchang", 
            "long": "115.88333"
        }, 
        {
            "lat": "29.70475", 
            "name": "Jiujiang", 
            "long": "116.00206"
        }, 
        {
            "lat": "29.2947", 
            "name": "Jingdezhen", 
            "long": "117.20789"
        }, 
        {
            "lat": "28.19377", 
            "name": "Jianguang", 
            "long": "115.7836"
        }, 
        {
            "lat": "27.11716", 
            "name": "Ji&#8217;an", 
            "long": "114.97927"
        }, 
        {
            "lat": "27.81117", 
            "name": "Fenyi", 
            "long": "114.66805"
        }, 
        {
            "lat": "28.7", 
            "name": "Changleng", 
            "long": "115.81667"
        }
    ], 
    "20": [
        {
            "lat": "39.68442", 
            "name": "Wuhai", 
            "long": "106.81583"
        }, 
        {
            "lat": "39.49944", 
            "name": "Wuda", 
            "long": "106.71167"
        }, 
        {
            "lat": "39.81609", 
            "name": "Dongsheng", 
            "long": "109.97763"
        }, 
        {
            "lat": "48", 
            "name": "Zalantun", 
            "long": "122.71667"
        }, 
        {
            "lat": "49.28333", 
            "name": "Yakeshi", 
            "long": "120.73333"
        }, 
        {
            "lat": "43.96667", 
            "name": "Xilin Hot", 
            "long": "116.03333"
        }, 
        {
            "lat": "46.08333", 
            "name": "Ulanhot", 
            "long": "122.08333"
        }, 
        {
            "lat": "43.6125", 
            "name": "Tongliao", 
            "long": "122.26528"
        }, 
        {
            "lat": "40.70583", 
            "name": "Shiguai", 
            "long": "110.28556"
        }, 
        {
            "lat": "40.54139", 
            "name": "Salaqi", 
            "long": "110.51083"
        }, 
        {
            "lat": "42.03722", 
            "name": "Pingzhuang", 
            "long": "119.28889"
        }, 
        {
            "lat": "42.11667", 
            "name": "Mujiayingzi", 
            "long": "118.78333"
        }, 
        {
            "lat": "49.6", 
            "name": "Manzhouli", 
            "long": "117.43333"
        }, 
        {
            "lat": "41.0275", 
            "name": "Jining", 
            "long": "113.10583"
        }, 
        {
            "lat": "49.45", 
            "name": "Jalai Nur", 
            "long": "117.7"
        }, 
        {
            "lat": "50.41667", 
            "name": "Jagdaqi", 
            "long": "124.11667"
        }, 
        {
            "lat": "40.81056", 
            "name": "Hohhot", 
            "long": "111.65222"
        }, 
        {
            "lat": "49.2", 
            "name": "Hailar", 
            "long": "119.7"
        }, 
        {
            "lat": "50.78333", 
            "name": "Genhe", 
            "long": "121.51667"
        }, 
        {
            "lat": "40.43944", 
            "name": "Beichengqu", 
            "long": "113.15361"
        }, 
        {
            "lat": "43.6475", 
            "name": "Erenhot", 
            "long": "111.97667"
        }, 
        {
            "lat": "42.26833", 
            "name": "Chifeng", 
            "long": "118.96361"
        }, 
        {
            "lat": "40.65222", 
            "name": "Baotou", 
            "long": "109.82222"
        }, 
        {
            "lat": "50.56667", 
            "name": "Oroqen Zizhiqi", 
            "long": "123.71667"
        }, 
        {
            "lat": "39.6086", 
            "name": "Ordos", 
            "long": "109.78157"
        }
    ], 
    "07": [
        {
            "lat": "24.51333", 
            "name": "Zhangzhou", 
            "long": "117.65556"
        }, 
        {
            "lat": "24.98773", 
            "name": "Ximei", 
            "long": "118.3858"
        }, 
        {
            "lat": "24.47979", 
            "name": "Xiamen", 
            "long": "118.08187"
        }, 
        {
            "lat": "27.32734", 
            "name": "Fuding", 
            "long": "120.21399"
        }, 
        {
            "lat": "26.03033", 
            "name": "Tantou", 
            "long": "119.59739"
        }, 
        {
            "lat": "24.44647", 
            "name": "Shima", 
            "long": "117.81216"
        }, 
        {
            "lat": "27.34089", 
            "name": "Shaowu", 
            "long": "117.4831"
        }, 
        {
            "lat": "26.24861", 
            "name": "Sanming", 
            "long": "117.61861"
        }, 
        {
            "lat": "25.725", 
            "name": "Fuqing", 
            "long": "119.37944"
        }, 
        {
            "lat": "24.91389", 
            "name": "Quanzhou", 
            "long": "118.58583"
        }, 
        {
            "lat": "24.81978", 
            "name": "Jinjiang", 
            "long": "118.57415"
        }, 
        {
            "lat": "25.43944", 
            "name": "Putian", 
            "long": "119.01028"
        }, 
        {
            "lat": "27.92333", 
            "name": "Pucheng", 
            "long": "118.53333"
        }, 
        {
            "lat": "26.645", 
            "name": "Nanping", 
            "long": "118.17361"
        }, 
        {
            "lat": "24.95938", 
            "name": "Luoyang", 
            "long": "118.683"
        }, 
        {
            "lat": "26.66167", 
            "name": "Ningde", 
            "long": "119.52278"
        }, 
        {
            "lat": "27.04694", 
            "name": "Jian&#8217;ou", 
            "long": "118.32528"
        }, 
        {
            "lat": "25.48694", 
            "name": "Jiangkou", 
            "long": "119.19834"
        }, 
        {
            "lat": "27.08917", 
            "name": "Chengyang", 
            "long": "119.64528"
        }, 
        {
            "lat": "26.06139", 
            "name": "Fuzhou", 
            "long": "119.30611"
        }
    ], 
    "11": [
        {
            "lat": "27.83333", 
            "name": "Zhuzhou", 
            "long": "113.15"
        }, 
        {
            "lat": "27.42829", 
            "name": "Yongfeng", 
            "long": "112.18338"
        }, 
        {
            "lat": "27.74278", 
            "name": "Shangmei", 
            "long": "111.29556"
        }, 
        {
            "lat": "28.66667", 
            "name": "Wenxing", 
            "long": "112.88333"
        }, 
        {
            "lat": "27.73333", 
            "name": "Xiangxiang", 
            "long": "112.53333"
        }, 
        {
            "lat": "27.85", 
            "name": "Xiangtan", 
            "long": "112.9"
        }, 
        {
            "lat": "29.04638", 
            "name": "Changde", 
            "long": "111.6783"
        }, 
        {
            "lat": "26.5844", 
            "name": "Wuxi", 
            "long": "111.859"
        }, 
        {
            "lat": "28.84061", 
            "name": "Qionghu", 
            "long": "112.37399"
        }, 
        {
            "lat": "26.76837", 
            "name": "Hongqiao", 
            "long": "112.10814"
        }, 
        {
            "lat": "28.25831", 
            "name": "Yutan", 
            "long": "112.56048"
        }, 
        {
            "lat": "29.35955", 
            "name": "Nanzhou", 
            "long": "112.40243"
        }, 
        {
            "lat": "27.73444", 
            "name": "Loudi", 
            "long": "111.99444"
        }, 
        {
            "lat": "28.15861", 
            "name": "Guankou", 
            "long": "113.62709"
        }, 
        {
            "lat": "27.66667", 
            "name": "Xishan", 
            "long": "113.5"
        }, 
        {
            "lat": "26.4111", 
            "name": "Lengshuitan", 
            "long": "111.59559"
        }, 
        {
            "lat": "27.68806", 
            "name": "Lengshuijiang", 
            "long": "111.42944"
        }, 
        {
            "lat": "26.40238", 
            "name": "Leiyang", 
            "long": "112.85908"
        }, 
        {
            "lat": "27.68833", 
            "name": "Lianyuan", 
            "long": "111.66417"
        }, 
        {
            "lat": "28.31925", 
            "name": "Qianzhou", 
            "long": "109.73346"
        }, 
        {
            "lat": "29.60487", 
            "name": "Jinshi", 
            "long": "111.87012"
        }, 
        {
            "lat": "27.54944", 
            "name": "Huaihua", 
            "long": "109.95917"
        }, 
        {
            "lat": "27.11", 
            "name": "Hongjiang", 
            "long": "109.99556"
        }, 
        {
            "lat": "28.58917", 
            "name": "Yiyang", 
            "long": "112.32833"
        }, 
        {
            "lat": "26.88946", 
            "name": "Hengyang", 
            "long": "112.61888"
        }, 
        {
            "lat": "29.12944", 
            "name": "Zhangjiajie", 
            "long": "110.47833"
        }, 
        {
            "lat": "25.8", 
            "name": "Chenzhou", 
            "long": "113.03333"
        }, 
        {
            "lat": "28.19874", 
            "name": "Changsha", 
            "long": "112.97087"
        }, 
        {
            "lat": "29.4", 
            "name": "Anxiang", 
            "long": "112.15"
        }, 
        {
            "lat": "27.31944", 
            "name": "Anjiang", 
            "long": "110.10306"
        }, 
        {
            "lat": "29.37455", 
            "name": "Yueyang", 
            "long": "113.09481"
        }, 
        {
            "lat": "26.46722", 
            "name": "Bojia", 
            "long": "111.96806"
        }, 
        {
            "lat": "27.93557", 
            "name": "Fenghuang", 
            "long": "109.59961"
        }
    ], 
    "10": [
        {
            "lat": "39.76538", 
            "name": "Zhaogezhuang", 
            "long": "118.41191"
        }, 
        {
            "lat": "37.90278", 
            "name": "Xinji", 
            "long": "115.20361"
        }, 
        {
            "lat": "37.06306", 
            "name": "Xingtai", 
            "long": "114.49417"
        }, 
        {
            "lat": "39.63333", 
            "name": "Tangshan", 
            "long": "118.18333"
        }, 
        {
            "lat": "39.74326", 
            "name": "Tangjiazhuang", 
            "long": "118.45099"
        }, 
        {
            "lat": "38.04139", 
            "name": "Shijiazhuang", 
            "long": "114.47861"
        }, 
        {
            "lat": "36.93833", 
            "name": "Shahecheng", 
            "long": "114.50583"
        }, 
        {
            "lat": "38.69889", 
            "name": "Renqiu", 
            "long": "116.09361"
        }, 
        {
            "lat": "39.93167", 
            "name": "Qinhuangdao", 
            "long": "119.58833"
        }, 
        {
            "lat": "36.43111", 
            "name": "Pengcheng", 
            "long": "114.17"
        }, 
        {
            "lat": "37.35806", 
            "name": "Nangong", 
            "long": "115.37444"
        }, 
        {
            "lat": "37.87917", 
            "name": "Luancheng", 
            "long": "114.65167"
        }, 
        {
            "lat": "39.71183", 
            "name": "Linxi", 
            "long": "118.44954"
        }, 
        {
            "lat": "36.42472", 
            "name": "Linshui", 
            "long": "114.20472"
        }, 
        {
            "lat": "39.50972", 
            "name": "Langfang", 
            "long": "116.69472"
        }, 
        {
            "lat": "37.99806", 
            "name": "Tianchang", 
            "long": "114.01556"
        }, 
        {
            "lat": "37.73222", 
            "name": "Hengshui", 
            "long": "115.70111"
        }, 
        {
            "lat": "36.53333", 
            "name": "Hecun", 
            "long": "114.11111"
        }, 
        {
            "lat": "36.60056", 
            "name": "Handan", 
            "long": "114.46778"
        }, 
        {
            "lat": "39.73054", 
            "name": "Guye", 
            "long": "118.44085"
        }, 
        {
            "lat": "39.83333", 
            "name": "Fengrun", 
            "long": "118.11667"
        }, 
        {
            "lat": "38.51306", 
            "name": "Dingzhou", 
            "long": "114.99556"
        }, 
        {
            "lat": "39.70417", 
            "name": "Changli", 
            "long": "119.15056"
        }, 
        {
            "lat": "38.31667", 
            "name": "Cangzhou", 
            "long": "116.86667"
        }, 
        {
            "lat": "38.06667", 
            "name": "Botou", 
            "long": "116.56667"
        }, 
        {
            "lat": "39.82222", 
            "name": "Beidaihehaibin", 
            "long": "119.51806"
        }, 
        {
            "lat": "38.85111", 
            "name": "Baoding", 
            "long": "115.49028"
        }, 
        {
            "lat": "40.81", 
            "name": "Zhangjiakou", 
            "long": "114.87944"
        }, 
        {
            "lat": "40.61028", 
            "name": "Xuanhua", 
            "long": "115.04472"
        }, 
        {
            "lat": "40.0025", 
            "name": "Shanhaiguan", 
            "long": "119.74889"
        }, 
        {
            "lat": "40.9725", 
            "name": "Chengde", 
            "long": "117.93611"
        }, 
        {
            "lat": "40.30806", 
            "name": "Songling", 
            "long": "118.27056"
        }
    ], 
    "13": [
        {
            "lat": "38.41667", 
            "name": "Shache", 
            "long": "77.24056"
        }, 
        {
            "lat": "39.47066", 
            "name": "Kashi", 
            "long": "75.98951"
        }, 
        {
            "lat": "37.1075", 
            "name": "Hotan", 
            "long": "79.93548"
        }, 
        {
            "lat": "43.80096", 
            "name": "&#220;r&#252;mqi", 
            "long": "87.60046"
        }, 
        {
            "lat": "42.94769", 
            "name": "Laochenglu", 
            "long": "89.17886"
        }, 
        {
            "lat": "44.3023", 
            "name": "Shihezi", 
            "long": "86.03694"
        }, 
        {
            "lat": "41.72778", 
            "name": "Kuche", 
            "long": "82.93639"
        }, 
        {
            "lat": "41.76055", 
            "name": "Sayibage", 
            "long": "86.15231"
        }, 
        {
            "lat": "46.51872", 
            "name": "Hoxtolgay", 
            "long": "86.00214"
        }, 
        {
            "lat": "42.83393", 
            "name": "Hami", 
            "long": "93.50601"
        }, 
        {
            "lat": "44.00782", 
            "name": "Yan&#8217;an Beilu", 
            "long": "87.30461"
        }, 
        {
            "lat": "45.68928", 
            "name": "Baijiantan", 
            "long": "85.12441"
        }, 
        {
            "lat": "40.54184", 
            "name": "Aral", 
            "long": "81.26566"
        }, 
        {
            "lat": "47.84864", 
            "name": "Altay", 
            "long": "88.13361"
        }, 
        {
            "lat": "41.18418", 
            "name": "Yingbazha", 
            "long": "80.27921"
        }
    ], 
    "12": [
        {
            "lat": "30.29556", 
            "name": "Zhicheng", 
            "long": "111.50472"
        }, 
        {
            "lat": "32.12722", 
            "name": "Zaoyang", 
            "long": "112.75417"
        }, 
        {
            "lat": "31.06251", 
            "name": "Yunmeng Chengguanzhen", 
            "long": "113.76545"
        }, 
        {
            "lat": "30.421", 
            "name": "Qianjiang", 
            "long": "112.8919"
        }, 
        {
            "lat": "31.16611", 
            "name": "Zhongxiang", 
            "long": "112.58306"
        }, 
        {
            "lat": "30.94454", 
            "name": "Chengzhong", 
            "long": "113.55284"
        }, 
        {
            "lat": "31.70472", 
            "name": "Yicheng", 
            "long": "112.25611"
        }, 
        {
            "lat": "30.71444", 
            "name": "Yichang", 
            "long": "111.28472"
        }, 
        {
            "lat": "29.71667", 
            "name": "Xiulin", 
            "long": "112.4"
        }, 
        {
            "lat": "30.86667", 
            "name": "Xinzhou", 
            "long": "114.8"
        }, 
        {
            "lat": "31.04704", 
            "name": "Xinshi", 
            "long": "113.14098"
        }, 
        {
            "lat": "29.81667", 
            "name": "Xindi", 
            "long": "113.46667"
        }, 
        {
            "lat": "31.68635", 
            "name": "Xihe", 
            "long": "113.46585"
        }, 
        {
            "lat": "30.92689", 
            "name": "Xiaogan", 
            "long": "113.92221"
        }, 
        {
            "lat": "30.3708", 
            "name": "Xiantao", 
            "long": "113.44294"
        }, 
        {
            "lat": "29.88333", 
            "name": "Xianning", 
            "long": "114.21667"
        }, 
        {
            "lat": "32.0422", 
            "name": "Xiangyang", 
            "long": "112.14479"
        }, 
        {
            "lat": "29.85058", 
            "name": "Wuxue", 
            "long": "115.5525"
        }, 
        {
            "lat": "30.58333", 
            "name": "Wuhan", 
            "long": "114.26667"
        }, 
        {
            "lat": "31.71111", 
            "name": "Suizhou", 
            "long": "113.36306"
        }, 
        {
            "lat": "32.6475", 
            "name": "Shiyan", 
            "long": "110.77806"
        }, 
        {
            "lat": "32.56667", 
            "name": "Shiyan", 
            "long": "110.78333"
        }, 
        {
            "lat": "30.30722", 
            "name": "Shashi", 
            "long": "112.24472"
        }, 
        {
            "lat": "30.45113", 
            "name": "Qingquan", 
            "long": "115.25593"
        }, 
        {
            "lat": "29.71667", 
            "name": "Puqi", 
            "long": "113.88333"
        }, 
        {
            "lat": "31.78394", 
            "name": "Nanzhang Chengguanzhen", 
            "long": "111.82752"
        }, 
        {
            "lat": "30.42139", 
            "name": "Zhijiang", 
            "long": "111.75333"
        }, 
        {
            "lat": "31.18013", 
            "name": "Macheng", 
            "long": "115.02213"
        }, 
        {
            "lat": "30.3", 
            "name": "Lichuan", 
            "long": "108.85"
        }, 
        {
            "lat": "32.38583", 
            "name": "Laohekou", 
            "long": "111.66778"
        }, 
        {
            "lat": "30.35028", 
            "name": "Jingzhou", 
            "long": "112.19028"
        }, 
        {
            "lat": "31.03361", 
            "name": "Jingmen", 
            "long": "112.20472"
        }, 
        {
            "lat": "30.65", 
            "name": "Jingling", 
            "long": "113.1"
        }, 
        {
            "lat": "30.45", 
            "name": "Huangzhou", 
            "long": "114.8"
        }, 
        {
            "lat": "30.24706", 
            "name": "Huangshi", 
            "long": "115.04814"
        }, 
        {
            "lat": "30.88453", 
            "name": "Huangpi", 
            "long": "114.37789"
        }, 
        {
            "lat": "30.19235", 
            "name": "Huangmei", 
            "long": "116.02496"
        }, 
        {
            "lat": "30.65", 
            "name": "Hanchuan", 
            "long": "113.76667"
        }, 
        {
            "lat": "32.26604", 
            "name": "Gucheng Chengguanzhen", 
            "long": "111.63476"
        }, 
        {
            "lat": "31.6199", 
            "name": "Guangshui", 
            "long": "113.9978"
        }, 
        {
            "lat": "30.08268", 
            "name": "Fengkou", 
            "long": "113.33346"
        }, 
        {
            "lat": "30.4", 
            "name": "Ezhou", 
            "long": "114.83333"
        }, 
        {
            "lat": "30.3", 
            "name": "Enshi", 
            "long": "109.48333"
        }, 
        {
            "lat": "30.67", 
            "name": "Duobao", 
            "long": "112.68952"
        }, 
        {
            "lat": "30.08333", 
            "name": "Daye", 
            "long": "114.95"
        }, 
        {
            "lat": "32.54278", 
            "name": "Danjiangkou", 
            "long": "111.50861"
        }, 
        {
            "lat": "30.2297", 
            "name": "Caohe", 
            "long": "115.43346"
        }, 
        {
            "lat": "30.58333", 
            "name": "Caidian", 
            "long": "114.03333"
        }, 
        {
            "lat": "30.28757", 
            "name": "Buhe", 
            "long": "112.22979"
        }, 
        {
            "lat": "31.2575", 
            "name": "Anlu", 
            "long": "113.67833"
        }
    ], 
    "15": [
        {
            "lat": "39.74318", 
            "name": "Jiuquan", 
            "long": "98.51736"
        }, 
        {
            "lat": "39.83333", 
            "name": "Laojunmiao", 
            "long": "97.73333"
        }, 
        {
            "lat": "39.81121", 
            "name": "Jiayuguan", 
            "long": "98.28618"
        }, 
        {
            "lat": "38.93417", 
            "name": "Zhangye", 
            "long": "100.45167"
        }, 
        {
            "lat": "34.57952", 
            "name": "Tianshui", 
            "long": "105.74238"
        }, 
        {
            "lat": "35.53917", 
            "name": "Pingliang", 
            "long": "106.68611"
        }, 
        {
            "lat": "35.60028", 
            "name": "Linxia Chengguanzhen", 
            "long": "103.20639"
        }, 
        {
            "lat": "37.92672", 
            "name": "Wuwei", 
            "long": "102.63202"
        }, 
        {
            "lat": "36.05701", 
            "name": "Lanzhou", 
            "long": "103.83987"
        }, 
        {
            "lat": "38.50062", 
            "name": "Jinchang", 
            "long": "102.19379"
        }, 
        {
            "lat": "34.56861", 
            "name": "Beidao", 
            "long": "105.89333"
        }, 
        {
            "lat": "36.54696", 
            "name": "Baiyin", 
            "long": "104.17023"
        }
    ], 
    "14": [
        {
            "lat": "29.25", 
            "name": "Rikaze", 
            "long": "88.88333"
        }, 
        {
            "lat": "31.1304", 
            "name": "Qamdo", 
            "long": "97.17982"
        }, 
        {
            "lat": "31.47678", 
            "name": "Nagqu", 
            "long": "92.05729"
        }, 
        {
            "lat": "29.65", 
            "name": "Lhasa", 
            "long": "91.1"
        }, 
        {
            "lat": "29.96178", 
            "name": "D&#234;q&#234;n", 
            "long": "90.71875"
        }
    ], 
    "16": [
        {
            "lat": "22.63333", 
            "name": "Yulin", 
            "long": "110.15"
        }, 
        {
            "lat": "22.1975", 
            "name": "Yashan", 
            "long": "109.94194"
        }, 
        {
            "lat": "24.78081", 
            "name": "Yangshuo", 
            "long": "110.48967"
        }, 
        {
            "lat": "23.48333", 
            "name": "Wuzhou", 
            "long": "111.31667"
        }, 
        {
            "lat": "21.97296", 
            "name": "Qinzhou", 
            "long": "108.62612"
        }, 
        {
            "lat": "22.75867", 
            "name": "Pumiao", 
            "long": "108.48111"
        }, 
        {
            "lat": "23.54218", 
            "name": "Pingnan", 
            "long": "110.38946"
        }, 
        {
            "lat": "22.81667", 
            "name": "Nanning", 
            "long": "108.31667"
        }, 
        {
            "lat": "22.8525", 
            "name": "Nandu", 
            "long": "110.82333"
        }, 
        {
            "lat": "24.40583", 
            "name": "Luorong", 
            "long": "109.60861"
        }, 
        {
            "lat": "22.70722", 
            "name": "Lingcheng", 
            "long": "110.34917"
        }, 
        {
            "lat": "21.66621", 
            "name": "Lianzhou", 
            "long": "109.20116"
        }, 
        {
            "lat": "23.7", 
            "name": "Laibin", 
            "long": "109.26667"
        }, 
        {
            "lat": "23.22806", 
            "name": "Jinji", 
            "long": "110.82611"
        }, 
        {
            "lat": "23.39336", 
            "name": "Guiping", 
            "long": "110.07437"
        }, 
        {
            "lat": "25.28194", 
            "name": "Guilin", 
            "long": "110.28639"
        }, 
        {
            "lat": "23.09639", 
            "name": "Guigang", 
            "long": "109.60917"
        }, 
        {
            "lat": "23.89972", 
            "name": "Baise City", 
            "long": "106.61333"
        }, 
        {
            "lat": "23.22378", 
            "name": "Luxu", 
            "long": "108.80217"
        }, 
        {
            "lat": "21.48333", 
            "name": "Beihai", 
            "long": "109.1"
        }, 
        {
            "lat": "22.1343", 
            "name": "Baihe", 
            "long": "107.232"
        }, 
        {
            "lat": "24.41667", 
            "name": "Babu", 
            "long": "111.51667"
        }
    ], 
    "19": [
        {
            "lat": "39.70083", 
            "name": "Zhuanghe", 
            "long": "122.99111"
        }, 
        {
            "lat": "39.61833", 
            "name": "Wafangdian", 
            "long": "122.00806"
        }, 
        {
            "lat": "39.39528", 
            "name": "Pulandian", 
            "long": "121.96694"
        }, 
        {
            "lat": "38.8", 
            "name": "L&#252;shun", 
            "long": "121.26667"
        }, 
        {
            "lat": "39.1", 
            "name": "Jinzhou", 
            "long": "121.71667"
        }, 
        {
            "lat": "38.91222", 
            "name": "Dalian", 
            "long": "121.60222"
        }, 
        {
            "lat": "39.02861", 
            "name": "Dalianwan", 
            "long": "121.695"
        }, 
        {
            "lat": "40.66482", 
            "name": "Yingkou", 
            "long": "122.22833"
        }, 
        {
            "lat": "41.3975", 
            "name": "Yebaishou", 
            "long": "119.64083"
        }, 
        {
            "lat": "40.29278", 
            "name": "Xiuyan", 
            "long": "123.27444"
        }, 
        {
            "lat": "41.99083", 
            "name": "Xinmin", 
            "long": "122.82528"
        }, 
        {
            "lat": "40.61667", 
            "name": "Xingcheng", 
            "long": "120.71667"
        }, 
        {
            "lat": "42.73722", 
            "name": "Xifeng", 
            "long": "124.72222"
        }, 
        {
            "lat": "41.29711", 
            "name": "Xiaoshi", 
            "long": "124.12092"
        }, 
        {
            "lat": "42.29306", 
            "name": "Tieling", 
            "long": "123.84139"
        }, 
        {
            "lat": "41.65917", 
            "name": "Sujiatun", 
            "long": "123.33917"
        }, 
        {
            "lat": "41.79222", 
            "name": "Shenyang", 
            "long": "123.43278"
        }, 
        {
            "lat": "41.18806", 
            "name": "Panshan", 
            "long": "122.04944"
        }, 
        {
            "lat": "40.9241", 
            "name": "Nantai", 
            "long": "122.80437"
        }, 
        {
            "lat": "41.09822", 
            "name": "Nanpiao", 
            "long": "120.74792"
        }, 
        {
            "lat": "41.24", 
            "name": "Lingyuan", 
            "long": "119.40111"
        }, 
        {
            "lat": "41.50611", 
            "name": "Liaozhong", 
            "long": "122.72417"
        }, 
        {
            "lat": "41.27194", 
            "name": "Liaoyang", 
            "long": "123.17306"
        }, 
        {
            "lat": "40.02611", 
            "name": "Langtou", 
            "long": "124.32861"
        }, 
        {
            "lat": "40.72861", 
            "name": "Kuandian", 
            "long": "124.78472"
        }, 
        {
            "lat": "42.53306", 
            "name": "Kaiyuan", 
            "long": "124.04028"
        }, 
        {
            "lat": "41.06667", 
            "name": "Jiupu", 
            "long": "122.95"
        }, 
        {
            "lat": "41.10778", 
            "name": "Jinzhou", 
            "long": "121.14167"
        }, 
        {
            "lat": "40.76432", 
            "name": "Lianshan", 
            "long": "120.85327"
        }, 
        {
            "lat": "41.93222", 
            "name": "Hushitai", 
            "long": "123.51139"
        }, 
        {
            "lat": "41.26472", 
            "name": "Huanren", 
            "long": "125.36667"
        }, 
        {
            "lat": "41.68917", 
            "name": "Heishan", 
            "long": "122.11278"
        }, 
        {
            "lat": "40.85158", 
            "name": "Haicheng", 
            "long": "122.74754"
        }, 
        {
            "lat": "41.11667", 
            "name": "Gongchangling", 
            "long": "123.45"
        }, 
        {
            "lat": "42.05889", 
            "name": "Fuxin", 
            "long": "121.745"
        }, 
        {
            "lat": "42.01556", 
            "name": "Fuxin", 
            "long": "121.65889"
        }, 
        {
            "lat": "41.85583", 
            "name": "Fushun", 
            "long": "123.92333"
        }, 
        {
            "lat": "40.45361", 
            "name": "Fengcheng", 
            "long": "124.07167"
        }, 
        {
            "lat": "41.81444", 
            "name": "Dongling", 
            "long": "123.57583"
        }, 
        {
            "lat": "40.63732", 
            "name": "Dashiqiao", 
            "long": "122.50251"
        }, 
        {
            "lat": "40.12917", 
            "name": "Dandong", 
            "long": "124.39472"
        }, 
        {
            "lat": "41.16528", 
            "name": "Linghai", 
            "long": "121.36667"
        }, 
        {
            "lat": "41.57028", 
            "name": "Chaoyang", 
            "long": "120.45861"
        }, 
        {
            "lat": "42.77884", 
            "name": "Changtu", 
            "long": "124.09545"
        }, 
        {
            "lat": "41.28861", 
            "name": "Benxi", 
            "long": "123.765"
        }, 
        {
            "lat": "41.79194", 
            "name": "Beipiao", 
            "long": "120.77917"
        }, 
        {
            "lat": "41.12361", 
            "name": "Anshan", 
            "long": "122.99"
        }
    ], 
    "18": [
        {
            "lat": "27.68667", 
            "name": "Zunyi", 
            "long": "106.90722"
        }, 
        {
            "lat": "26.19028", 
            "name": "Xiaoweizhai", 
            "long": "107.5125"
        }, 
        {
            "lat": "28.1368", 
            "name": "Loushanguan", 
            "long": "106.822"
        }, 
        {
            "lat": "27.71722", 
            "name": "Tongren", 
            "long": "109.18528"
        }, 
        {
            "lat": "26.58333", 
            "name": "Guiyang", 
            "long": "106.71667"
        }, 
        {
            "lat": "26.26667", 
            "name": "Duyun", 
            "long": "107.51667"
        }, 
        {
            "lat": "26.85", 
            "name": "Weining", 
            "long": "104.23333"
        }, 
        {
            "lat": "27.30193", 
            "name": "Bijie", 
            "long": "105.28627"
        }, 
        {
            "lat": "26.25", 
            "name": "Anshun", 
            "long": "105.93333"
        }, 
        {
            "lat": "26.59444", 
            "name": "Liupanshui", 
            "long": "104.83333"
        }
    ], 
    "31": [
        {
            "lat": "20.00073", 
            "name": "Xiuying", 
            "long": "110.29359"
        }, 
        {
            "lat": "18.80454", 
            "name": "Wancheng", 
            "long": "110.39512"
        }, 
        {
            "lat": "18.24306", 
            "name": "Sanya", 
            "long": "109.505"
        }, 
        {
            "lat": "20.00583", 
            "name": "Qiongshan", 
            "long": "110.35417"
        }, 
        {
            "lat": "19.90778", 
            "name": "Lincheng", 
            "long": "109.68583"
        }, 
        {
            "lat": "19.72878", 
            "name": "Jinjiang", 
            "long": "110.00851"
        }, 
        {
            "lat": "20.04583", 
            "name": "Haikou", 
            "long": "110.34167"
        }
    ], 
    "30": [
        {
            "lat": "23.05116", 
            "name": "Zhaoqing", 
            "long": "112.45972"
        }, 
        {
            "lat": "21.28145", 
            "name": "Zhanjiang", 
            "long": "110.34271"
        }, 
        {
            "lat": "22.92833", 
            "name": "Yunfu", 
            "long": "112.03954"
        }, 
        {
            "lat": "23.73333", 
            "name": "Heyuan", 
            "long": "114.68333"
        }, 
        {
            "lat": "20.32917", 
            "name": "Xucheng", 
            "long": "110.16712"
        }, 
        {
            "lat": "25.11667", 
            "name": "Xiongzhou", 
            "long": "114.3"
        }, 
        {
            "lat": "23.15486", 
            "name": "Sanshui", 
            "long": "112.89161"
        }, 
        {
            "lat": "22.27694", 
            "name": "Zhuhai", 
            "long": "113.56778"
        }, 
        {
            "lat": "22.03177", 
            "name": "Tangping", 
            "long": "111.93537"
        }, 
        {
            "lat": "22.25135", 
            "name": "Taishan", 
            "long": "112.7799"
        }, 
        {
            "lat": "23.00107", 
            "name": "Shiwan", 
            "long": "113.077"
        }, 
        {
            "lat": "22.9464", 
            "name": "Shiqiao", 
            "long": "113.35769"
        }, 
        {
            "lat": "22.51682", 
            "name": "Shiqi", 
            "long": "113.38521"
        }, 
        {
            "lat": "23.11444", 
            "name": "Shilong", 
            "long": "113.84722"
        }, 
        {
            "lat": "22.54554", 
            "name": "Shenzhen", 
            "long": "114.0683"
        }, 
        {
            "lat": "22.77019", 
            "name": "Shaping", 
            "long": "112.95776"
        }, 
        {
            "lat": "24.8", 
            "name": "Shaoguan", 
            "long": "113.58333"
        }, 
        {
            "lat": "22.78199", 
            "name": "Shanwei", 
            "long": "115.3475"
        }, 
        {
            "lat": "23.36814", 
            "name": "Shantou", 
            "long": "116.71479"
        }, 
        {
            "lat": "23.5418", 
            "name": "Jieyang", 
            "long": "116.36581"
        }, 
        {
            "lat": "23.7", 
            "name": "Qingyuan", 
            "long": "113.03333"
        }, 
        {
            "lat": "22.99376", 
            "name": "Pingshan", 
            "long": "114.71311"
        }, 
        {
            "lat": "23.72695", 
            "name": "Nanfeng", 
            "long": "111.79723"
        }, 
        {
            "lat": "24.29769", 
            "name": "Meizhou", 
            "long": "116.10724"
        }, 
        {
            "lat": "21.45713", 
            "name": "Wuchuan", 
            "long": "110.76591"
        }, 
        {
            "lat": "24.68413", 
            "name": "Maba", 
            "long": "113.59839"
        }, 
        {
            "lat": "23.16244", 
            "name": "Luoyang", 
            "long": "114.27342"
        }, 
        {
            "lat": "23.17233", 
            "name": "Lubu", 
            "long": "112.28298"
        }, 
        {
            "lat": "23.31072", 
            "name": "Puning", 
            "long": "116.16869"
        }, 
        {
            "lat": "23.29549", 
            "name": "Licheng", 
            "long": "113.82465"
        }, 
        {
            "lat": "24.78186", 
            "name": "Lianzhou", 
            "long": "112.3712"
        }, 
        {
            "lat": "21.64673", 
            "name": "Lianjiang", 
            "long": "110.28172"
        }, 
        {
            "lat": "25.128", 
            "name": "Lecheng", 
            "long": "113.35041"
        }, 
        {
            "lat": "22.81027", 
            "name": "Jieshi", 
            "long": "115.83058"
        }, 
        {
            "lat": "22.87932", 
            "name": "Jiazi", 
            "long": "116.07318"
        }, 
        {
            "lat": "22.58333", 
            "name": "Jiangmen", 
            "long": "113.08333"
        }, 
        {
            "lat": "21.85563", 
            "name": "Yangjiang", 
            "long": "111.96272"
        }, 
        {
            "lat": "22.81899", 
            "name": "Humen", 
            "long": "113.67306"
        }, 
        {
            "lat": "23.08333", 
            "name": "Huizhou", 
            "long": "114.4"
        }, 
        {
            "lat": "23.03845", 
            "name": "Huicheng", 
            "long": "116.28988"
        }, 
        {
            "lat": "22.456", 
            "name": "Xinhui", 
            "long": "113.0482"
        }, 
        {
            "lat": "21.63333", 
            "name": "Huazhou", 
            "long": "110.58333"
        }, 
        {
            "lat": "23.11037", 
            "name": "Dasha", 
            "long": "113.4418"
        }, 
        {
            "lat": "23.67704", 
            "name": "Huanggang", 
            "long": "116.99961"
        }, 
        {
            "lat": "23.91952", 
            "name": "Huaicheng", 
            "long": "112.17629"
        }, 
        {
            "lat": "23.43077", 
            "name": "Hepo", 
            "long": "115.82991"
        }, 
        {
            "lat": "23.19346", 
            "name": "Haimen", 
            "long": "116.61219"
        }, 
        {
            "lat": "23.11667", 
            "name": "Guangzhou", 
            "long": "113.25"
        }, 
        {
            "lat": "21.93924", 
            "name": "Gaozhou", 
            "long": "110.84607"
        }, 
        {
            "lat": "23.02677", 
            "name": "Foshan", 
            "long": "113.13148"
        }, 
        {
            "lat": "22.18659", 
            "name": "Encheng", 
            "long": "112.30424"
        }, 
        {
            "lat": "23.24212", 
            "name": "Ducheng", 
            "long": "111.5284"
        }, 
        {
            "lat": "22.37303", 
            "name": "Xinyi", 
            "long": "110.94746"
        }, 
        {
            "lat": "22.94593", 
            "name": "Donghai", 
            "long": "115.64204"
        }, 
        {
            "lat": "23.04889", 
            "name": "Dongguan", 
            "long": "113.74472"
        }, 
        {
            "lat": "22.7984", 
            "name": "Danshui", 
            "long": "114.46716"
        }, 
        {
            "lat": "22.84067", 
            "name": "Daliang", 
            "long": "113.2503"
        }, 
        {
            "lat": "22.16667", 
            "name": "Yangchun", 
            "long": "111.78333"
        }, 
        {
            "lat": "23.46132", 
            "name": "Chenghua", 
            "long": "116.77007"
        }, 
        {
            "lat": "23.65396", 
            "name": "Chaozhou", 
            "long": "116.62262"
        }, 
        {
            "lat": "23.44895", 
            "name": "Anbu", 
            "long": "116.68092"
        }, 
        {
            "lat": "21.31992", 
            "name": "Zhongshan", 
            "long": "110.5723"
        }, 
        {
            "lat": "24.94824", 
            "name": "Shixing", 
            "long": "114.06572"
        }
    ], 
    "33": [
        {
            "lat": "29.385", 
            "name": "Yudong", 
            "long": "106.51944"
        }, 
        {
            "lat": "29.35376", 
            "name": "Yongchuan", 
            "long": "105.89392"
        }, 
        {
            "lat": "30.81544", 
            "name": "Wanxian", 
            "long": "108.37089"
        }, 
        {
            "lat": "29.28993", 
            "name": "Jijiang", 
            "long": "106.25001"
        }, 
        {
            "lat": "29.99228", 
            "name": "Hechuan", 
            "long": "106.26461"
        }, 
        {
            "lat": "29.706", 
            "name": "Fuling", 
            "long": "107.39575"
        }, 
        {
            "lat": "29.56278", 
            "name": "Chongqing", 
            "long": "106.55278"
        }, 
        {
            "lat": "29.82739", 
            "name": "Beibei", 
            "long": "106.43645"
        }
    ], 
    "32": [
        {
            "lat": "30.12108", 
            "name": "Yanjiang", 
            "long": "104.64811"
        }, 
        {
            "lat": "29.34162", 
            "name": "Zigong", 
            "long": "104.77689"
        }, 
        {
            "lat": "28.76667", 
            "name": "Yibin", 
            "long": "104.62383"
        }, 
        {
            "lat": "28.45433", 
            "name": "Xunchang", 
            "long": "104.71498"
        }, 
        {
            "lat": "27.89642", 
            "name": "Xichang", 
            "long": "102.26341"
        }, 
        {
            "lat": "31.09407", 
            "name": "Tongchuan", 
            "long": "105.08731"
        }, 
        {
            "lat": "30.98664", 
            "name": "Tianpeng", 
            "long": "103.93933"
        }, 
        {
            "lat": "30.50802", 
            "name": "Suining", 
            "long": "105.57332"
        }, 
        {
            "lat": "26.5479", 
            "name": "Dadukou", 
            "long": "101.70539"
        }, 
        {
            "lat": "29.58354", 
            "name": "Neijiang", 
            "long": "105.06216"
        }, 
        {
            "lat": "31.35333", 
            "name": "Nanlong", 
            "long": "106.06309"
        }, 
        {
            "lat": "30.79508", 
            "name": "Nanchong", 
            "long": "106.08473"
        }, 
        {
            "lat": "31.45934", 
            "name": "Mianyang", 
            "long": "104.75423"
        }, 
        {
            "lat": "29.38481", 
            "name": "Luocheng", 
            "long": "104.02862"
        }, 
        {
            "lat": "30.05127", 
            "name": "Kangding", 
            "long": "101.96033"
        }, 
        {
            "lat": "30.41587", 
            "name": "Linqiong", 
            "long": "103.46089"
        }, 
        {
            "lat": "29.56227", 
            "name": "Leshan", 
            "long": "103.76386"
        }, 
        {
            "lat": "32.44201", 
            "name": "Guangyuan", 
            "long": "105.823"
        }, 
        {
            "lat": "30.77576", 
            "name": "Gaoping", 
            "long": "106.10294"
        }, 
        {
            "lat": "31.13019", 
            "name": "Deyang", 
            "long": "104.38198"
        }, 
        {
            "lat": "31.21592", 
            "name": "Dazhou", 
            "long": "107.50092"
        }, 
        {
            "lat": "29.78062", 
            "name": "Chonglong", 
            "long": "104.85224"
        }, 
        {
            "lat": "30.66667", 
            "name": "Chengdu", 
            "long": "104.06667"
        }, 
        {
            "lat": "31.55037", 
            "name": "Langzhong", 
            "long": "105.99381"
        }, 
        {
            "lat": "31.76667", 
            "name": "Jiangyou", 
            "long": "104.71667"
        }
    ]
}