{
    "11": [
        {
            "lat": "-1.57386", 
            "name": "Sake", 
            "long": "29.04339"
        }, 
        {
            "lat": "-1.67409", 
            "name": "Goma", 
            "long": "29.22845"
        }, 
        {
            "lat": "0.14164", 
            "name": "Butembo", 
            "long": "29.29117"
        }, 
        {
            "lat": "0.49113", 
            "name": "Beni", 
            "long": "29.47306"
        }
    ], 
    "03": [
        {
            "lat": "-6.41621", 
            "name": "Tshikapa", 
            "long": "20.79995"
        }, 
        {
            "lat": "-4.85187", 
            "name": "Mweka", 
            "long": "21.5595"
        }, 
        {
            "lat": "-5.35218", 
            "name": "Luebo", 
            "long": "21.42192"
        }, 
        {
            "lat": "-5.89624", 
            "name": "Kananga", 
            "long": "22.41659"
        }, 
        {
            "lat": "-4.33111", 
            "name": "Ilebo", 
            "long": "20.58638"
        }, 
        {
            "lat": "-5.49573", 
            "name": "Demba", 
            "long": "22.26962"
        }
    ], 
    "13": [
        {
            "lat": "-0.48193", 
            "name": "Owando", 
            "long": "15.89988"
        }
    ], 
    "12": [
        {
            "lat": "-3.39534", 
            "name": "Uvira", 
            "long": "29.13779"
        }, 
        {
            "lat": "-2.49682", 
            "name": "Kabare", 
            "long": "28.79081"
        }, 
        {
            "lat": "-2.49077", 
            "name": "Bukavu", 
            "long": "28.84281"
        }, 
        {
            "lat": "-4.26613", 
            "name": "Brazzaville", 
            "long": "15.28318"
        }
    ], 
    "06": [
        {
            "lat": "-4.32758", 
            "name": "Kinshasa", 
            "long": "15.31357"
        }, 
        {
            "lat": "-4.38361", 
            "name": "Masina", 
            "long": "15.39139"
        }, 
        {
            "lat": "1.61804", 
            "name": "Impfondo", 
            "long": "18.05981"
        }
    ], 
    "07": [
        {
            "lat": "-2.94968", 
            "name": "Mossendjo", 
            "long": "12.70423"
        }, 
        {
            "lat": "-4.19834", 
            "name": "Dolisie", 
            "long": "12.66664"
        }
    ], 
    "04": [
        {
            "lat": "0.76755", 
            "name": "Yangambi", 
            "long": "24.43973"
        }, 
        {
            "lat": "-7.00906", 
            "name": "Mwene-Ditu", 
            "long": "23.45278"
        }, 
        {
            "lat": "-6.13603", 
            "name": "Mbuji-Mayi", 
            "long": "23.58979"
        }, 
        {
            "lat": "-4.97503", 
            "name": "Lusambo", 
            "long": "23.44391"
        }, 
        {
            "lat": "-5.38771", 
            "name": "Lubao", 
            "long": "25.74885"
        }, 
        {
            "lat": "-3.52105", 
            "name": "Lodja", 
            "long": "23.6005"
        }, 
        {
            "lat": "-6.13791", 
            "name": "Kabinda", 
            "long": "24.48179"
        }, 
        {
            "lat": "-6.74504", 
            "name": "Gandajika", 
            "long": "23.95328"
        }
    ], 
    "05": [
        {
            "lat": "-5.38532", 
            "name": "Kongolo", 
            "long": "27.00029"
        }, 
        {
            "lat": "-8.73861", 
            "name": "Kamina", 
            "long": "24.99056"
        }, 
        {
            "lat": "-5.94749", 
            "name": "Kalemie", 
            "long": "29.19471"
        }, 
        {
            "lat": "-6.05", 
            "name": "Kabalo", 
            "long": "26.91667"
        }, 
        {
            "lat": "-9.2", 
            "name": "Bukama", 
            "long": "25.85"
        }, 
        {
            "lat": "-11.66089", 
            "name": "Lubumbashi", 
            "long": "27.47938"
        }, 
        {
            "lat": "-10.98139", 
            "name": "Likasi", 
            "long": "26.73333"
        }, 
        {
            "lat": "-10.71484", 
            "name": "Kolwezi", 
            "long": "25.46674"
        }, 
        {
            "lat": "-11.76667", 
            "name": "Kipushi", 
            "long": "27.23333"
        }, 
        {
            "lat": "-10.87639", 
            "name": "Kambove", 
            "long": "26.59694"
        }, 
        {
            "lat": "-3.68192", 
            "name": "Sibiti", 
            "long": "13.34985"
        }
    ], 
    "02": [
        {
            "lat": "2.15127", 
            "name": "Lisala", 
            "long": "21.51672"
        }, 
        {
            "lat": "4.279", 
            "name": "Gbadolite", 
            "long": "21.00284"
        }, 
        {
            "lat": "3.33863", 
            "name": "Businga", 
            "long": "20.88577"
        }, 
        {
            "lat": "2.18771", 
            "name": "Bumba", 
            "long": "22.46827"
        }, 
        {
            "lat": "-0.28163", 
            "name": "Boende", 
            "long": "20.88053"
        }, 
        {
            "lat": "0.04865", 
            "name": "Mbandaka", 
            "long": "18.26034"
        }, 
        {
            "lat": "3.65332", 
            "name": "Libenge", 
            "long": "18.63566"
        }, 
        {
            "lat": "3.25651", 
            "name": "Gemena", 
            "long": "19.77234"
        }
    ], 
    "08": [
        {
            "lat": "-4.99707", 
            "name": "Tshela", 
            "long": "12.9484"
        }, 
        {
            "lat": "-5.25837", 
            "name": "Mbanza-Ngungu", 
            "long": "14.85838"
        }, 
        {
            "lat": "-5.79949", 
            "name": "Matadi", 
            "long": "13.44068"
        }, 
        {
            "lat": "-4.59111", 
            "name": "Kasangulu", 
            "long": "15.17083"
        }, 
        {
            "lat": "-1.87639", 
            "name": "Gamboma", 
            "long": "15.86444"
        }
    ], 
    "09": [
        {
            "lat": "3.03716", 
            "name": "Watsa", 
            "long": "29.53551"
        }, 
        {
            "lat": "2.14838", 
            "name": "Wamba", 
            "long": "27.99466"
        }, 
        {
            "lat": "0.51528", 
            "name": "Kisangani", 
            "long": "25.19099"
        }, 
        {
            "lat": "2.77391", 
            "name": "Isiro", 
            "long": "27.61603"
        }, 
        {
            "lat": "2.78582", 
            "name": "Buta", 
            "long": "24.72997"
        }, 
        {
            "lat": "1.55941", 
            "name": "Bunia", 
            "long": "30.25224"
        }, 
        {
            "lat": "3.81461", 
            "name": "Bondo", 
            "long": "23.68665"
        }, 
        {
            "lat": "1.23909", 
            "name": "Basoko", 
            "long": "23.61598"
        }, 
        {
            "lat": "2.73877", 
            "name": "Aketi", 
            "long": "23.78326"
        }
    ], 
    "01": [
        {
            "lat": "-2.72037", 
            "name": "Nioki", 
            "long": "17.69001"
        }, 
        {
            "lat": "-3.01728", 
            "name": "Mushie", 
            "long": "16.92238"
        }, 
        {
            "lat": "-4.02328", 
            "name": "Mangai", 
            "long": "19.53385"
        }, 
        {
            "lat": "-5.04098", 
            "name": "Kikwit", 
            "long": "18.81619"
        }, 
        {
            "lat": "-6.47833", 
            "name": "Kasongo-Lunda", 
            "long": "16.81735"
        }, 
        {
            "lat": "-1.9275", 
            "name": "Inongo", 
            "long": "18.2881"
        }, 
        {
            "lat": "-4.54437", 
            "name": "Bulungu", 
            "long": "18.60364"
        }, 
        {
            "lat": "-2.158", 
            "name": "Bolobo", 
            "long": "16.23249"
        }, 
        {
            "lat": "-3.31687", 
            "name": "Bandundu", 
            "long": "17.38063"
        }, 
        {
            "lat": "-4.15361", 
            "name": "Madingou", 
            "long": "13.55"
        }, 
        {
            "lat": "-4.20493", 
            "name": "Kayes", 
            "long": "13.28608"
        }
    ], 
    "7280295": [
        {
            "lat": "-4.77609", 
            "name": "Pointe-Noire", 
            "long": "11.86352"
        }, 
        {
            "lat": "-4.75611", 
            "name": "Loandjili", 
            "long": "11.85778"
        }
    ], 
    "10": [
        {
            "lat": "-2.94373", 
            "name": "Kindu", 
            "long": "25.92237"
        }, 
        {
            "lat": "-4.42741", 
            "name": "Kasongo", 
            "long": "26.66656"
        }, 
        {
            "lat": "-3.59678", 
            "name": "Kampene", 
            "long": "26.66715"
        }, 
        {
            "lat": "1.61361", 
            "name": "Ou&#233;sso", 
            "long": "16.05167"
        }
    ]
}