{
    "11": [
        {
            "lat": "62.31533", 
            "name": "Varkaus", 
            "long": "27.873"
        }, 
        {
            "lat": "63.08333", 
            "name": "Siilinj&#228;rvi", 
            "long": "27.66667"
        }, 
        {
            "lat": "62.89238", 
            "name": "Kuopio", 
            "long": "27.67703"
        }, 
        {
            "lat": "63.55915", 
            "name": "Iisalmi", 
            "long": "27.19067"
        }
    ], 
    "02": [
        {
            "lat": "60.80043", 
            "name": "Uusikaupunki", 
            "long": "21.40841"
        }, 
        {
            "lat": "60.45148", 
            "name": "Turku", 
            "long": "22.26869"
        }, 
        {
            "lat": "60.38333", 
            "name": "Salo", 
            "long": "23.13333"
        }, 
        {
            "lat": "60.48592", 
            "name": "Raisio", 
            "long": "22.16895"
        }, 
        {
            "lat": "60.51032", 
            "name": "Lieto", 
            "long": "22.46176"
        }, 
        {
            "lat": "60.40724", 
            "name": "Kaarina", 
            "long": "22.36904"
        }, 
        {
            "lat": "60.29972", 
            "name": "L&#228;nsi-Turunmaa", 
            "long": "22.3004"
        }
    ], 
    "13": [
        {
            "lat": "62.41407", 
            "name": "Laukaa", 
            "long": "25.95194"
        }, 
        {
            "lat": "62.24147", 
            "name": "Jyv&#228;skyl&#228;", 
            "long": "25.72088"
        }, 
        {
            "lat": "61.8642", 
            "name": "J&#228;ms&#228;", 
            "long": "25.19002"
        }
    ], 
    "01": [
        {
            "lat": "60.41699", 
            "name": "Vihti", 
            "long": "24.31965"
        }, 
        {
            "lat": "60.29414", 
            "name": "Vantaa", 
            "long": "25.04099"
        }, 
        {
            "lat": "60.40368", 
            "name": "Tuusula", 
            "long": "25.02638"
        }, 
        {
            "lat": "60.37752", 
            "name": "Sibbo", 
            "long": "25.26906"
        }, 
        {
            "lat": "60.46407", 
            "name": "Nurmij&#228;rvi", 
            "long": "24.8073"
        }, 
        {
            "lat": "60.63333", 
            "name": "M&#228;nts&#228;l&#228;", 
            "long": "25.31667"
        }, 
        {
            "lat": "60.24859", 
            "name": "Lohja", 
            "long": "24.06534"
        }, 
        {
            "lat": "60.12381", 
            "name": "Kirkkonummi", 
            "long": "24.43853"
        }, 
        {
            "lat": "60.40338", 
            "name": "Kerava", 
            "long": "25.105"
        }, 
        {
            "lat": "60.47369", 
            "name": "J&#228;rvenp&#228;&#228;", 
            "long": "25.08992"
        }, 
        {
            "lat": "60.63333", 
            "name": "Hyvinge", 
            "long": "24.86667"
        }, 
        {
            "lat": "60.16952", 
            "name": "Helsinki", 
            "long": "24.93545"
        }, 
        {
            "lat": "60.2052", 
            "name": "Espoo", 
            "long": "24.6522"
        }, 
        {
            "lat": "60.39233", 
            "name": "Porvoo", 
            "long": "25.66507"
        }
    ], 
    "15": [
        {
            "lat": "63.096", 
            "name": "Vaasa", 
            "long": "21.61577"
        }, 
        {
            "lat": "63.11418", 
            "name": "Korsholm", 
            "long": "21.68216"
        }, 
        {
            "lat": "63.67486", 
            "name": "Jakobstad", 
            "long": "22.70256"
        }
    ], 
    "14": [
        {
            "lat": "62.79446", 
            "name": "Sein&#228;joki", 
            "long": "22.82822"
        }
    ], 
    "04": [
        {
            "lat": "61.12724", 
            "name": "Rauma", 
            "long": "21.51127"
        }, 
        {
            "lat": "61.48333", 
            "name": "Pori", 
            "long": "21.78333"
        }
    ], 
    "10": [
        {
            "lat": "61.8699", 
            "name": "Savonlinna", 
            "long": "28.87999"
        }, 
        {
            "lat": "61.68857", 
            "name": "Mikkeli", 
            "long": "27.27227"
        }
    ], 
    "19": [
        {
            "lat": "65.84811", 
            "name": "Tornio", 
            "long": "24.14662"
        }, 
        {
            "lat": "66.5", 
            "name": "Rovaniemi", 
            "long": "25.71667"
        }, 
        {
            "lat": "65.73641", 
            "name": "Kemi", 
            "long": "24.56371"
        }
    ], 
    "18": [
        {
            "lat": "64.22728", 
            "name": "Kajaani", 
            "long": "27.72846"
        }
    ], 
    "08": [
        {
            "lat": "60.86667", 
            "name": "Kouvola", 
            "long": "26.7"
        }, 
        {
            "lat": "60.46667", 
            "name": "Kotka", 
            "long": "26.91667"
        }, 
        {
            "lat": "60.52156", 
            "name": "Karhula", 
            "long": "26.93125"
        }, 
        {
            "lat": "60.56974", 
            "name": "Hamina", 
            "long": "27.19794"
        }, 
        {
            "lat": "60.68333", 
            "name": "Anjala", 
            "long": "26.83333"
        }
    ], 
    "05": [
        {
            "lat": "60.73769", 
            "name": "Riihim&#228;ki", 
            "long": "24.77726"
        }, 
        {
            "lat": "60.9", 
            "name": "Janakkala", 
            "long": "24.6"
        }, 
        {
            "lat": "60.99596", 
            "name": "H&#228;meenlinna", 
            "long": "24.46434"
        }, 
        {
            "lat": "60.81462", 
            "name": "Forssa", 
            "long": "23.62146"
        }
    ], 
    "16": [
        {
            "lat": "63.83847", 
            "name": "Kokkola", 
            "long": "23.13066"
        }
    ], 
    "17": [
        {
            "lat": "64.68333", 
            "name": "Raahe", 
            "long": "24.48333"
        }, 
        {
            "lat": "65.01236", 
            "name": "Oulu", 
            "long": "25.46816"
        }, 
        {
            "lat": "65.96667", 
            "name": "Kuusamo", 
            "long": "29.18333"
        }, 
        {
            "lat": "65.17654", 
            "name": "Haukipudas", 
            "long": "25.35233"
        }
    ], 
    "06": [
        {
            "lat": "61.55632", 
            "name": "Yl&#246;j&#228;rvi", 
            "long": "23.59606"
        }, 
        {
            "lat": "61.26421", 
            "name": "Valkeakoski", 
            "long": "24.03122"
        }, 
        {
            "lat": "61.49911", 
            "name": "Tampere", 
            "long": "23.78712"
        }, 
        {
            "lat": "61.46125", 
            "name": "Pirkkala", 
            "long": "23.63228"
        }, 
        {
            "lat": "61.46667", 
            "name": "Nokia", 
            "long": "23.5"
        }, 
        {
            "lat": "61.31667", 
            "name": "Lemp&#228;&#228;l&#228;", 
            "long": "23.75"
        }, 
        {
            "lat": "61.46383", 
            "name": "Kangasala", 
            "long": "24.07602"
        }
    ], 
    "12": [
        {
            "lat": "62.60118", 
            "name": "Joensuu", 
            "long": "29.76316"
        }
    ], 
    "09": [
        {
            "lat": "61.05871", 
            "name": "Lappeenranta", 
            "long": "28.18871"
        }, 
        {
            "lat": "61.17185", 
            "name": "Imatra", 
            "long": "28.75242"
        }
    ], 
    "07": [
        {
            "lat": "60.98267", 
            "name": "Lahti", 
            "long": "25.66151"
        }, 
        {
            "lat": "61.05", 
            "name": "Hollola", 
            "long": "25.43333"
        }, 
        {
            "lat": "61.20564", 
            "name": "Heinola", 
            "long": "26.03811"
        }
    ]
}