{
    "11": [
        {
            "lat": "10.06069", 
            "name": "Wa", 
            "long": "-2.50192"
        }
    ], 
    "03": [
        {
            "lat": "7.73916", 
            "name": "Wenchi", 
            "long": "-2.10456"
        }, 
        {
            "lat": "7.58617", 
            "name": "Techiman", 
            "long": "-1.94137"
        }, 
        {
            "lat": "7.33991", 
            "name": "Sunyani", 
            "long": "-2.32676"
        }, 
        {
            "lat": "8.05627", 
            "name": "Kintampo", 
            "long": "-1.73058"
        }, 
        {
            "lat": "7.4534", 
            "name": "Berekum", 
            "long": "-2.58404"
        }
    ], 
    "01": [
        {
            "lat": "5.58365", 
            "name": "Teshi Old Town", 
            "long": "-0.10722"
        }, 
        {
            "lat": "5.6698", 
            "name": "Tema", 
            "long": "-0.01657"
        }, 
        {
            "lat": "5.60105", 
            "name": "Nungua", 
            "long": "-0.07713"
        }, 
        {
            "lat": "5.6658", 
            "name": "Medina Estates", 
            "long": "-0.16307"
        }, 
        {
            "lat": "5.57714", 
            "name": "Gbawe", 
            "long": "-0.31035"
        }, 
        {
            "lat": "5.65003", 
            "name": "Dome", 
            "long": "-0.2361"
        }, 
        {
            "lat": "5.7", 
            "name": "Achiaman", 
            "long": "-0.33333"
        }, 
        {
            "lat": "5.55602", 
            "name": "Accra", 
            "long": "-0.1969"
        }
    ], 
    "06": [
        {
            "lat": "9.44272", 
            "name": "Yendi", 
            "long": "-0.00991"
        }, 
        {
            "lat": "9.40079", 
            "name": "Tamale", 
            "long": "-0.8393"
        }, 
        {
            "lat": "9.62441", 
            "name": "Savelugu", 
            "long": "-0.8253"
        }, 
        {
            "lat": "8.55083", 
            "name": "Salaga", 
            "long": "-0.51875"
        }
    ], 
    "04": [
        {
            "lat": "5.35113", 
            "name": "Winneba", 
            "long": "-0.62313"
        }, 
        {
            "lat": "5.53711", 
            "name": "Swedru", 
            "long": "-0.69984"
        }, 
        {
            "lat": "5.20913", 
            "name": "Saltpond", 
            "long": "-1.06058"
        }, 
        {
            "lat": "5.53449", 
            "name": "Kasoa", 
            "long": "-0.41679"
        }, 
        {
            "lat": "5.70119", 
            "name": "Foso", 
            "long": "-1.28657"
        }, 
        {
            "lat": "5.0847", 
            "name": "Elmina", 
            "long": "-1.35093"
        }, 
        {
            "lat": "5.96562", 
            "name": "Dunkwa", 
            "long": "-1.77995"
        }, 
        {
            "lat": "5.10535", 
            "name": "Cape Coast", 
            "long": "-1.2466"
        }, 
        {
            "lat": "5.28483", 
            "name": "Apam", 
            "long": "-0.73711"
        }
    ], 
    "05": [
        {
            "lat": "6.04089", 
            "name": "Suhum", 
            "long": "-0.45004"
        }, 
        {
            "lat": "5.92665", 
            "name": "Akim Oda", 
            "long": "-0.98577"
        }, 
        {
            "lat": "5.80893", 
            "name": "Nsawam", 
            "long": "-0.35026"
        }, 
        {
            "lat": "6.55121", 
            "name": "Nkawkaw", 
            "long": "-0.7662"
        }, 
        {
            "lat": "6.09408", 
            "name": "Koforidua", 
            "long": "-0.25913"
        }, 
        {
            "lat": "6.38706", 
            "name": "Begoro", 
            "long": "-0.37738"
        }, 
        {
            "lat": "5.86006", 
            "name": "Asamankese", 
            "long": "-0.6635"
        }, 
        {
            "lat": "6.04024", 
            "name": "Akwatia", 
            "long": "-0.80876"
        }, 
        {
            "lat": "5.84802", 
            "name": "Aburi", 
            "long": "-0.17449"
        }
    ], 
    "02": [
        {
            "lat": "6.73453", 
            "name": "Tafo", 
            "long": "-1.61275"
        }, 
        {
            "lat": "6.20602", 
            "name": "Obuasi", 
            "long": "-1.66191"
        }, 
        {
            "lat": "7.06273", 
            "name": "Mampong", 
            "long": "-1.4001"
        }, 
        {
            "lat": "6.68848", 
            "name": "Kumasi", 
            "long": "-1.62443"
        }, 
        {
            "lat": "6.61667", 
            "name": "Konongo", 
            "long": "-1.21667"
        }, 
        {
            "lat": "7.38558", 
            "name": "Ejura", 
            "long": "-1.35617"
        }, 
        {
            "lat": "6.80004", 
            "name": "Agogo", 
            "long": "-1.08193"
        }
    ], 
    "08": [
        {
            "lat": "6.99536", 
            "name": "Kpandu", 
            "long": "0.29306"
        }, 
        {
            "lat": "5.91793", 
            "name": "Keta", 
            "long": "0.98789"
        }, 
        {
            "lat": "7.15181", 
            "name": "Hohoe", 
            "long": "0.47362"
        }, 
        {
            "lat": "6.60084", 
            "name": "Ho", 
            "long": "0.4713"
        }, 
        {
            "lat": "5.79473", 
            "name": "Anloga", 
            "long": "0.89728"
        }
    ], 
    "09": [
        {
            "lat": "5.30644", 
            "name": "Tarkwa", 
            "long": "-1.98474"
        }, 
        {
            "lat": "4.88447", 
            "name": "Takoradi", 
            "long": "-1.75536"
        }, 
        {
            "lat": "5.00872", 
            "name": "Shama Junction", 
            "long": "-1.63011"
        }, 
        {
            "lat": "4.934", 
            "name": "Sekondi-Takoradi", 
            "long": "-1.7137"
        }, 
        {
            "lat": "5.43274", 
            "name": "Prestea", 
            "long": "-2.14284"
        }, 
        {
            "lat": "6.46346", 
            "name": "Bibiani", 
            "long": "-2.31938"
        }, 
        {
            "lat": "4.86992", 
            "name": "Axim", 
            "long": "-2.24046"
        }
    ], 
    "10": [
        {
            "lat": "10.89557", 
            "name": "Navrongo", 
            "long": "-1.0921"
        }, 
        {
            "lat": "10.78556", 
            "name": "Bolgatanga", 
            "long": "-0.85139"
        }, 
        {
            "lat": "11.0616", 
            "name": "Bawku", 
            "long": "-0.24169"
        }
    ]
}