{
    "02": [
        {
            "lat": "13.30028", 
            "name": "Ciudad Choluteca", 
            "long": "-87.19083"
        }
    ], 
    "03": [
        {
            "lat": "15.68333", 
            "name": "Tocoa", 
            "long": "-86"
        }
    ], 
    "01": [
        {
            "lat": "15.77425", 
            "name": "Tela", 
            "long": "-87.46731"
        }, 
        {
            "lat": "15.75971", 
            "name": "La Ceiba", 
            "long": "-86.78221"
        }
    ], 
    "06": [
        {
            "lat": "15.82562", 
            "name": "Puerto Cortez", 
            "long": "-87.92968"
        }, 
        {
            "lat": "15.31667", 
            "name": "Villanueva", 
            "long": "-88"
        }, 
        {
            "lat": "15.50417", 
            "name": "San Pedro Sula", 
            "long": "-88.025"
        }, 
        {
            "lat": "15.23333", 
            "name": "Potrerillos", 
            "long": "-87.96667"
        }, 
        {
            "lat": "15.43333", 
            "name": "La Lima", 
            "long": "-87.91667"
        }, 
        {
            "lat": "15.4", 
            "name": "Cofrad&#237;a", 
            "long": "-88.15"
        }, 
        {
            "lat": "15.61444", 
            "name": "Choloma", 
            "long": "-87.95302"
        }
    ], 
    "17": [
        {
            "lat": "13.42417", 
            "name": "San Lorenzo", 
            "long": "-87.44722"
        }
    ], 
    "04": [
        {
            "lat": "14.6", 
            "name": "Siguatepeque", 
            "long": "-87.83333"
        }, 
        {
            "lat": "14.45139", 
            "name": "Comayagua", 
            "long": "-87.6375"
        }
    ], 
    "05": [
        {
            "lat": "14.76667", 
            "name": "Santa Rosa de Cop&#225;n", 
            "long": "-88.77917"
        }
    ], 
    "18": [
        {
            "lat": "15.1375", 
            "name": "Yoro", 
            "long": "-87.12778"
        }, 
        {
            "lat": "15.48131", 
            "name": "Olanchito", 
            "long": "-86.57415"
        }, 
        {
            "lat": "15.4", 
            "name": "El Progreso", 
            "long": "-87.8"
        }
    ], 
    "08": [
        {
            "lat": "14.0818", 
            "name": "Tegucigalpa", 
            "long": "-87.20681"
        }
    ], 
    "16": [
        {
            "lat": "14.91944", 
            "name": "Santa B&#225;rbara", 
            "long": "-88.23611"
        }
    ], 
    "12": [
        {
            "lat": "14.31944", 
            "name": "La Paz", 
            "long": "-87.67917"
        }
    ], 
    "15": [
        {
            "lat": "14.66667", 
            "name": "Juticalpa", 
            "long": "-86.21944"
        }
    ], 
    "07": [
        {
            "lat": "13.86667", 
            "name": "El Para&#237;so", 
            "long": "-86.55"
        }, 
        {
            "lat": "14.03333", 
            "name": "Danl&#237;", 
            "long": "-86.58333"
        }
    ]
}