{
    "10": [
        {
            "lat": "17.99107", 
            "name": "Spanish Town", 
            "long": "-76.95742"
        }, 
        {
            "lat": "17.95032", 
            "name": "Portmore", 
            "long": "-76.88215"
        }, 
        {
            "lat": "17.94144", 
            "name": "Old Harbour", 
            "long": "-77.10898"
        }, 
        {
            "lat": "18.13683", 
            "name": "Linstead", 
            "long": "-77.03171"
        }
    ], 
    "12": [
        {
            "lat": "18.47116", 
            "name": "Montego Bay", 
            "long": "-77.91883"
        }
    ], 
    "17": [
        {
            "lat": "17.99702", 
            "name": "Kingston", 
            "long": "-76.79358"
        }
    ], 
    "04": [
        {
            "lat": "18.04168", 
            "name": "Mandeville", 
            "long": "-77.50714"
        }
    ], 
    "16": [
        {
            "lat": "18.21895", 
            "name": "Savanna-la-Mar", 
            "long": "-78.1332"
        }
    ], 
    "08": [
        {
            "lat": "18.00747", 
            "name": "New Kingston", 
            "long": "-76.78319"
        }, 
        {
            "lat": "18.01248", 
            "name": "Half Way Tree", 
            "long": "-76.79928"
        }
    ], 
    "01": [
        {
            "lat": "17.96454", 
            "name": "May Pen", 
            "long": "-77.24515"
        }
    ]
}