{
    "24": [
        {
            "lat": "42.43306", 
            "name": "Shtime", 
            "long": "21.03972"
        }
    ], 
    "03": [
        {
            "lat": "42.37056", 
            "name": "Ferizaj", 
            "long": "21.15528"
        }
    ], 
    "26": [
        {
            "lat": "42.35861", 
            "name": "Suva Reka", 
            "long": "20.825"
        }
    ], 
    "27": [
        {
            "lat": "42.32139", 
            "name": "Vitina", 
            "long": "21.35833"
        }
    ], 
    "20": [
        {
            "lat": "42.67272", 
            "name": "Pristina", 
            "long": "21.16688"
        }
    ], 
    "21": [
        {
            "lat": "42.21389", 
            "name": "Prizren", 
            "long": "20.73972"
        }
    ], 
    "22": [
        {
            "lat": "42.39944", 
            "name": "Orahovac", 
            "long": "20.65472"
        }
    ], 
    "05": [
        {
            "lat": "42.38028", 
            "name": "Gjakov&#235;", 
            "long": "20.43083"
        }
    ], 
    "19": [
        {
            "lat": "42.91056", 
            "name": "Podujeva", 
            "long": "21.19306"
        }
    ], 
    "18": [
        {
            "lat": "42.65913", 
            "name": "Pej&#235;", 
            "long": "20.28828"
        }
    ], 
    "08": [
        {
            "lat": "42.78083", 
            "name": "Istok", 
            "long": "20.4875"
        }
    ], 
    "30": [
        {
            "lat": "42.9075", 
            "name": "Zve&#269;an", 
            "long": "20.84028"
        }
    ], 
    "28": [
        {
            "lat": "42.82306", 
            "name": "Vushtrri", 
            "long": "20.9675"
        }
    ], 
    "04": [
        {
            "lat": "42.66394", 
            "name": "Kosovo Polje", 
            "long": "21.09611"
        }
    ], 
    "02": [
        {
            "lat": "42.0265", 
            "name": "Dragash", 
            "long": "20.65333"
        }
    ], 
    "12": [
        {
            "lat": "43.10389", 
            "name": "Leposaviq", 
            "long": "20.80278"
        }
    ], 
    "07": [
        {
            "lat": "42.62833", 
            "name": "Glogovac", 
            "long": "20.89389"
        }
    ], 
    "06": [
        {
            "lat": "42.46045", 
            "name": "Gjilan", 
            "long": "21.46986"
        }
    ], 
    "15": [
        {
            "lat": "42.88333", 
            "name": "Mitrovic&#235;", 
            "long": "20.86667"
        }
    ], 
    "01": [
        {
            "lat": "42.54018", 
            "name": "De&#231;an", 
            "long": "20.28793"
        }
    ], 
    "14": [
        {
            "lat": "42.55528", 
            "name": "Llazic&#235;", 
            "long": "20.76333"
        }
    ]
}