{
    "11": [
        {
            "lat": "-28.76659", 
            "name": "Butha-Buthe", 
            "long": "28.24937"
        }
    ], 
    "13": [
        {
            "lat": "-29.82299", 
            "name": "Mafeteng", 
            "long": "27.23744"
        }
    ], 
    "12": [
        {
            "lat": "-28.8866", 
            "name": "Maputsoe", 
            "long": "27.89915"
        }, 
        {
            "lat": "-28.87185", 
            "name": "Leribe", 
            "long": "28.04501"
        }
    ], 
    "15": [
        {
            "lat": "-30.15137", 
            "name": "Mohale&#8217;s Hoek", 
            "long": "27.47691"
        }
    ], 
    "14": [
        {
            "lat": "-29.31667", 
            "name": "Maseru", 
            "long": "27.48333"
        }
    ], 
    "17": [
        {
            "lat": "-30.11537", 
            "name": "Qacha&#8217;s Nek", 
            "long": "28.68936"
        }
    ], 
    "18": [
        {
            "lat": "-30.40001", 
            "name": "Quthing", 
            "long": "27.70027"
        }
    ]
}