{
    "11": [
        {
            "lat": "5.88109", 
            "name": "Buchanan", 
            "long": "-10.04472"
        }
    ], 
    "10": [
        {
            "lat": "5.01111", 
            "name": "Greenville", 
            "long": "-9.03889"
        }
    ], 
    "13": [
        {
            "lat": "4.3782", 
            "name": "Harper City", 
            "long": "-7.71081"
        }
    ], 
    "01": [
        {
            "lat": "6.99556", 
            "name": "Gbarnga", 
            "long": "-9.47222"
        }
    ], 
    "20": [
        {
            "lat": "8.42194", 
            "name": "Voinjama", 
            "long": "-9.74778"
        }
    ], 
    "14": [
        {
            "lat": "6.30054", 
            "name": "Monrovia", 
            "long": "-10.7969"
        }, 
        {
            "lat": "6.44715", 
            "name": "Bensonville City", 
            "long": "-10.61408"
        }
    ], 
    "17": [
        {
            "lat": "6.53147", 
            "name": "Kakata", 
            "long": "-10.35357"
        }
    ], 
    "19": [
        {
            "lat": "6.06846", 
            "name": "Zwedru", 
            "long": "-8.13559"
        }
    ], 
    "09": [
        {
            "lat": "7.57944", 
            "name": "New Yekepa", 
            "long": "-8.53778"
        }
    ]
}