{
    "67": [
        {
            "lat": "32.9312", 
            "name": "Zuw&#257;rah", 
            "long": "12.08199"
        }, 
        {
            "lat": "32.94701", 
            "name": "Zal&#355;an", 
            "long": "11.86647"
        }
    ], 
    "71": [
        {
            "lat": "24.96472", 
            "name": "Gh&#257;t", 
            "long": "10.17278"
        }
    ], 
    "74": [
        {
            "lat": "31.86848", 
            "name": "N&#257;l&#363;t", 
            "long": "10.9812"
        }
    ], 
    "70": [
        {
            "lat": "32.76704", 
            "name": "Darnah", 
            "long": "22.63669"
        }, 
        {
            "lat": "32.76163", 
            "name": "Al Qubbah", 
            "long": "22.24237"
        }
    ], 
    "84": [
        {
            "lat": "26.59206", 
            "name": "Awb&#257;r&#299;", 
            "long": "12.78049"
        }
    ], 
    "75": [
        {
            "lat": "27.03766", 
            "name": "Sabh&#257;", 
            "long": "14.42832"
        }, 
        {
            "lat": "27.05", 
            "name": "Al Jad&#299;d", 
            "long": "14.4"
        }
    ], 
    "77": [
        {
            "lat": "32.87519", 
            "name": "Tripoli", 
            "long": "13.18746"
        }, 
        {
            "lat": "32.88167", 
            "name": "Tagiura", 
            "long": "13.35056"
        }
    ], 
    "76": [
        {
            "lat": "31.20892", 
            "name": "Sirte", 
            "long": "16.58866"
        }
    ], 
    "68": [
        {
            "lat": "32.75668", 
            "name": "&#350;urm&#257;n", 
            "long": "12.57159"
        }, 
        {
            "lat": "32.79335", 
            "name": "&#350;abr&#257;tah", 
            "long": "12.48845"
        }, 
        {
            "lat": "32.75222", 
            "name": "Zawiya", 
            "long": "12.72778"
        }, 
        {
            "lat": "32.7571", 
            "name": "Az Z&#257;w&#299;yah", 
            "long": "12.72764"
        }
    ], 
    "63": [
        {
            "lat": "32.76272", 
            "name": "Al Bay&#7697;&#257;&#8217;", 
            "long": "21.75506"
        }
    ], 
    "64": [
        {
            "lat": "29.1614", 
            "name": "Wadd&#257;n", 
            "long": "16.13904"
        }, 
        {
            "lat": "29.12684", 
            "name": "H&#363;n", 
            "long": "15.94772"
        }
    ], 
    "65": [
        {
            "lat": "24.20487", 
            "name": "At T&#257;j", 
            "long": "23.2857"
        }, 
        {
            "lat": "24.1989", 
            "name": "Al Jawf", 
            "long": "23.29093"
        }
    ], 
    "66": [
        {
            "lat": "32.53414", 
            "name": "T&#363;krah", 
            "long": "20.57911"
        }, 
        {
            "lat": "32.48798", 
            "name": "Al Marj", 
            "long": "20.83174"
        }, 
        {
            "lat": "32.19", 
            "name": "Al Aby&#257;r", 
            "long": "20.59653"
        }
    ], 
    "69": [
        {
            "lat": "31.66818", 
            "name": "Sul&#363;q", 
            "long": "20.25205"
        }, 
        {
            "lat": "32.11486", 
            "name": "Benghazi", 
            "long": "20.06859"
        }
    ], 
    "82": [
        {
            "lat": "32.43501", 
            "name": "Tarhuna", 
            "long": "13.6332"
        }, 
        {
            "lat": "32.61667", 
            "name": "Masall&#257;tah", 
            "long": "14"
        }, 
        {
            "lat": "32.64861", 
            "name": "Al Khums", 
            "long": "14.26191"
        }
    ], 
    "83": [
        {
            "lat": "30.9522", 
            "name": "Az Zuwayt&#299;nah", 
            "long": "20.12022"
        }, 
        {
            "lat": "30.75545", 
            "name": "Ajdabiya", 
            "long": "20.22625"
        }
    ], 
    "80": [
        {
            "lat": "32.06329", 
            "name": "Yafran", 
            "long": "12.52859"
        }, 
        {
            "lat": "31.44514", 
            "name": "Mizdah", 
            "long": "12.98013"
        }, 
        {
            "lat": "32.17222", 
            "name": "Gharyan", 
            "long": "13.02028"
        }, 
        {
            "lat": "31.92231", 
            "name": "Az Zint&#257;n", 
            "long": "12.25195"
        }
    ], 
    "78": [
        {
            "lat": "27.54956", 
            "name": "Brak", 
            "long": "14.27139"
        }
    ], 
    "73": [
        {
            "lat": "25.91552", 
            "name": "Murzuq", 
            "long": "13.91839"
        }
    ], 
    "79": [
        {
            "lat": "32.08361", 
            "name": "Tobruk", 
            "long": "23.97639"
        }
    ], 
    "72": [
        {
            "lat": "32.46739", 
            "name": "Zliten", 
            "long": "14.56874"
        }, 
        {
            "lat": "32.37535", 
            "name": "Mi&#351;r&#257;tah", 
            "long": "15.09254"
        }, 
        {
            "lat": "31.75662", 
            "name": "Ban&#299; Wal&#299;d", 
            "long": "13.99422"
        }
    ]
}