{
    "02": [
        {
            "lat": "46.71667", 
            "name": "Bayanhongor", 
            "long": "100.11667"
        }, 
        {
            "lat": "46.19444", 
            "name": "Bayanhongor", 
            "long": "100.71806"
        }
    ], 
    "03": [
        {
            "lat": "48.96833", 
            "name": "&#214;lgiy", 
            "long": "89.9625"
        }
    ], 
    "13": [
        {
            "lat": "49.63417", 
            "name": "Murun-kuren", 
            "long": "100.1625"
        }
    ], 
    "12": [
        {
            "lat": "48.00556", 
            "name": "Khovd", 
            "long": "91.64194"
        }
    ], 
    "20": [
        {
            "lat": "47.90771", 
            "name": "Ulaanbaatar", 
            "long": "106.88324"
        }
    ], 
    "14": [
        {
            "lat": "43.57083", 
            "name": "Dalandzadgad", 
            "long": "104.425"
        }
    ], 
    "17": [
        {
            "lat": "46.68056", 
            "name": "Baruun-Urt", 
            "long": "113.27917"
        }
    ], 
    "10": [
        {
            "lat": "46.37222", 
            "name": "Altai", 
            "long": "96.25833"
        }
    ], 
    "19": [
        {
            "lat": "49.98111", 
            "name": "Ulaangom", 
            "long": "92.06667"
        }
    ], 
    "23": [
        {
            "lat": "49.48667", 
            "name": "Darhan", 
            "long": "105.92278"
        }
    ], 
    "08": [
        {
            "lat": "45.7625", 
            "name": "Mandalgovi", 
            "long": "106.27083"
        }
    ], 
    "09": [
        {
            "lat": "47.74167", 
            "name": "Uliastay", 
            "long": "96.84444"
        }
    ], 
    "21": [
        {
            "lat": "48.8125", 
            "name": "Bulgan", 
            "long": "103.53472"
        }
    ], 
    "16": [
        {
            "lat": "50.23139", 
            "name": "S&#252;hbaatar", 
            "long": "106.20778"
        }, 
        {
            "lat": "48.85229", 
            "name": "Dz&#252;&#252;nharaa", 
            "long": "106.45786"
        }
    ], 
    "25": [
        {
            "lat": "49.03333", 
            "name": "Erdenet", 
            "long": "104.08333"
        }
    ], 
    "18": [
        {
            "lat": "47.70693", 
            "name": "&#1047;&#1091;&#1091;&#1085;&#1084;&#1086;&#1076;", 
            "long": "106.95276"
        }
    ], 
    "15": [
        {
            "lat": "44.67024", 
            "name": "Hovd", 
            "long": "102.17491"
        }, 
        {
            "lat": "46.26389", 
            "name": "Arvayheer", 
            "long": "102.775"
        }
    ], 
    "07": [
        {
            "lat": "44.88239", 
            "name": "Saynshand", 
            "long": "110.11631"
        }
    ]
}