{
    "02": [
        {
            "lat": "-25.05194", 
            "name": "Xai-Xai", 
            "long": "33.64417"
        }, 
        {
            "lat": "-25.02694", 
            "name": "Macia", 
            "long": "33.09889"
        }, 
        {
            "lat": "-24.71167", 
            "name": "Manjacaze", 
            "long": "33.88278"
        }, 
        {
            "lat": "-24.53333", 
            "name": "Chokw&#233;", 
            "long": "32.98333"
        }, 
        {
            "lat": "-24.68667", 
            "name": "Chibuto", 
            "long": "33.53056"
        }
    ], 
    "03": [
        {
            "lat": "-23.85972", 
            "name": "Maxixe", 
            "long": "35.34722"
        }, 
        {
            "lat": "-23.865", 
            "name": "Inhambane", 
            "long": "35.38333"
        }
    ], 
    "01": [
        {
            "lat": "-12.97395", 
            "name": "Pemba", 
            "long": "40.51775"
        }, 
        {
            "lat": "-13.12556", 
            "name": "Montepuez", 
            "long": "38.99972"
        }, 
        {
            "lat": "-11.31667", 
            "name": "Moc&#237;mboa", 
            "long": "40.35"
        }
    ], 
    "06": [
        {
            "lat": "-15.11646", 
            "name": "Nampula", 
            "long": "39.2666"
        }, 
        {
            "lat": "-14.56257", 
            "name": "Nacala", 
            "long": "40.68538"
        }, 
        {
            "lat": "-15.03417", 
            "name": "Ilha de Mo&#231;ambique", 
            "long": "40.73583"
        }, 
        {
            "lat": "-16.2325", 
            "name": "Ant&#243;nio Enes", 
            "long": "39.90861"
        }, 
        {
            "lat": "-14.87056", 
            "name": "Mutu&#225;li", 
            "long": "37.00444"
        }
    ], 
    "07": [
        {
            "lat": "-13.31278", 
            "name": "Lichinga", 
            "long": "35.24056"
        }, 
        {
            "lat": "-14.80306", 
            "name": "Cuamba", 
            "long": "36.53722"
        }
    ], 
    "04": [
        {
            "lat": "-25.44278", 
            "name": "Ressano Garcia", 
            "long": "31.99528"
        }, 
        {
            "lat": "-25.96222", 
            "name": "Matola", 
            "long": "32.45889"
        }
    ], 
    "05": [
        {
            "lat": "-19.60944", 
            "name": "Dondo", 
            "long": "34.74306"
        }, 
        {
            "lat": "-19.84361", 
            "name": "Beira", 
            "long": "34.83889"
        }
    ], 
    "08": [
        {
            "lat": "-16.15639", 
            "name": "Tete", 
            "long": "33.58667"
        }
    ], 
    "09": [
        {
            "lat": "-17.87861", 
            "name": "Quelimane", 
            "long": "36.88833"
        }
    ], 
    "11": [
        {
            "lat": "-25.96553", 
            "name": "Maputo", 
            "long": "32.58322"
        }
    ], 
    "10": [
        {
            "lat": "-19.11639", 
            "name": "Chimoio", 
            "long": "33.48333"
        }
    ]
}