{
    "02": [
        {
            "lat": "31.34111", 
            "name": "Zhob", 
            "long": "69.44806"
        }, 
        {
            "lat": "25.80722", 
            "name": "Uthal", 
            "long": "66.62194"
        }, 
        {
            "lat": "28.17943", 
            "name": "Usta Muhammad", 
            "long": "68.04454"
        }, 
        {
            "lat": "26.00228", 
            "name": "Turbat", 
            "long": "63.04399"
        }, 
        {
            "lat": "29.5448", 
            "name": "Sibi", 
            "long": "67.8764"
        }, 
        {
            "lat": "30.199", 
            "name": "Quetta", 
            "long": "67.00971"
        }, 
        {
            "lat": "30.58028", 
            "name": "Pishin", 
            "long": "66.99611"
        }, 
        {
            "lat": "25.26311", 
            "name": "Pasni", 
            "long": "63.47103"
        }, 
        {
            "lat": "29.55423", 
            "name": "Nushki", 
            "long": "66.02148"
        }, 
        {
            "lat": "28.1085", 
            "name": "Mehr&#257;bpur", 
            "long": "68.0254"
        }, 
        {
            "lat": "29.79936", 
            "name": "Mastung", 
            "long": "66.84505"
        }, 
        {
            "lat": "29.86371", 
            "name": "Mach", 
            "long": "67.32979"
        }, 
        {
            "lat": "30.37053", 
            "name": "Loralai", 
            "long": "68.59798"
        }, 
        {
            "lat": "30.19438", 
            "name": "Kot Malik", 
            "long": "66.99299"
        }, 
        {
            "lat": "28.58333", 
            "name": "Kh&#257;r&#257;n", 
            "long": "65.41667"
        }, 
        {
            "lat": "29.02251", 
            "name": "Kal&#257;t", 
            "long": "66.5916"
        }, 
        {
            "lat": "25.04992", 
            "name": "J&#299;wani", 
            "long": "61.74681"
        }, 
        {
            "lat": "25.81308", 
            "name": "H&#257;la", 
            "long": "68.42273"
        }, 
        {
            "lat": "25.12163", 
            "name": "Gwadar", 
            "long": "62.32541"
        }, 
        {
            "lat": "29.03069", 
            "name": "Dera Bugti", 
            "long": "69.15099"
        }, 
        {
            "lat": "29.47527", 
            "name": "D&#257;dhar", 
            "long": "67.65135"
        }, 
        {
            "lat": "30.9236", 
            "name": "Chaman", 
            "long": "66.45116"
        }, 
        {
            "lat": "26.2271", 
            "name": "Bela", 
            "long": "66.3111"
        }
    ], 
    "03": [
        {
            "lat": "34.06028", 
            "name": "Zaida", 
            "long": "72.46778"
        }, 
        {
            "lat": "34.18799", 
            "name": "Utm&#257;nzai", 
            "long": "71.76286"
        }, 
        {
            "lat": "34.07041", 
            "name": "Topi", 
            "long": "72.62358"
        }, 
        {
            "lat": "32.22168", 
            "name": "T&#257;nk", 
            "long": "70.37928"
        }, 
        {
            "lat": "34.30056", 
            "name": "Tangi", 
            "long": "71.65361"
        }, 
        {
            "lat": "35.47908", 
            "name": "T&#257;l", 
            "long": "72.24385"
        }, 
        {
            "lat": "34.11988", 
            "name": "Sw&#257;bi", 
            "long": "72.46987"
        }, 
        {
            "lat": "31.90991", 
            "name": "Shorko", 
            "long": "70.87741"
        }, 
        {
            "lat": "34.2139", 
            "name": "Shabqadar", 
            "long": "71.55523"
        }, 
        {
            "lat": "32.82591", 
            "name": "Sar&#257;i Naurang", 
            "long": "70.78136"
        }, 
        {
            "lat": "34.008", 
            "name": "Peshawar", 
            "long": "71.57849"
        }, 
        {
            "lat": "32.10384", 
            "name": "Pah&#257;rpur", 
            "long": "70.97235"
        }, 
        {
            "lat": "34.01056", 
            "name": "Pabbi", 
            "long": "71.79889"
        }, 
        {
            "lat": "34.7795", 
            "name": "Mingora", 
            "long": "72.36265"
        }, 
        {
            "lat": "34.20195", 
            "name": "Mardan", 
            "long": "72.05254"
        }, 
        {
            "lat": "34.33333", 
            "name": "M&#257;nsehra", 
            "long": "73.2"
        }, 
        {
            "lat": "32.60795", 
            "name": "Lakki Marwat", 
            "long": "70.91142"
        }, 
        {
            "lat": "33.38325", 
            "name": "L&#257;chi", 
            "long": "71.33858"
        }, 
        {
            "lat": "31.92861", 
            "name": "Kul&#257;chi", 
            "long": "70.45917"
        }, 
        {
            "lat": "33.58196", 
            "name": "Koh&#257;t", 
            "long": "71.44929"
        }, 
        {
            "lat": "34.06", 
            "name": "Khal&#257;bat", 
            "long": "72.88944"
        }, 
        {
            "lat": "34.0536", 
            "name": "Haveli&#257;n", 
            "long": "73.16571"
        }, 
        {
            "lat": "33.99997", 
            "name": "Har&#299;pur", 
            "long": "72.93409"
        }, 
        {
            "lat": "33.53108", 
            "name": "Hangu", 
            "long": "71.05934"
        }, 
        {
            "lat": "35.20583", 
            "name": "D&#299;r", 
            "long": "71.87556"
        }, 
        {
            "lat": "31.83269", 
            "name": "Dera Ism&#257;&#299;l Kh&#257;n", 
            "long": "70.9024"
        }, 
        {
            "lat": "34.14345", 
            "name": "Ch&#257;rsadda", 
            "long": "71.73173"
        }, 
        {
            "lat": "34.61667", 
            "name": "Bat Khela", 
            "long": "71.97139"
        }, 
        {
            "lat": "32.98541", 
            "name": "Bannu", 
            "long": "70.6027"
        }, 
        {
            "lat": "34.00583", 
            "name": "Amangarh", 
            "long": "71.93"
        }, 
        {
            "lat": "34.00361", 
            "name": "Akora", 
            "long": "72.12611"
        }, 
        {
            "lat": "34.14685", 
            "name": "Abbott&#257;b&#257;d", 
            "long": "73.21449"
        }, 
        {
            "lat": "33.99829", 
            "name": "Nowshera Cantonment", 
            "long": "71.99834"
        }, 
        {
            "lat": "34.06186", 
            "name": "Ris&#257;lpur", 
            "long": "71.99165"
        }
    ], 
    "06": [
        {
            "lat": "33.85782", 
            "name": "R&#257;wala Kot", 
            "long": "73.76043"
        }, 
        {
            "lat": "34.37002", 
            "name": "Muzaffar&#257;b&#257;d", 
            "long": "73.47082"
        }, 
        {
            "lat": "33.51667", 
            "name": "Kotli", 
            "long": "73.91667"
        }, 
        {
            "lat": "32.97568", 
            "name": "Bhimbar", 
            "long": "74.07926"
        }
    ], 
    "04": [
        {
            "lat": "28.81239", 
            "name": "Z&#257;hir P&#299;r", 
            "long": "70.52405"
        }, 
        {
            "lat": "32.34631", 
            "name": "Zafarw&#257;l", 
            "long": "74.89987"
        }, 
        {
            "lat": "29.12122", 
            "name": "Yazman", 
            "long": "71.74459"
        }, 
        {
            "lat": "32.44583", 
            "name": "Waz&#299;r&#257;b&#257;d", 
            "long": "74.11594"
        }, 
        {
            "lat": "31.55", 
            "name": "Warburton", 
            "long": "73.83333"
        }, 
        {
            "lat": "30.03333", 
            "name": "Vih&#257;ri", 
            "long": "72.35"
        }, 
        {
            "lat": "30.97433", 
            "name": "Toba Tek Singh", 
            "long": "72.48269"
        }, 
        {
            "lat": "30.70483", 
            "name": "Taunsa", 
            "long": "70.65051"
        }, 
        {
            "lat": "31.03333", 
            "name": "T&#257;ndli&#257;nw&#257;la", 
            "long": "73.13333"
        }, 
        {
            "lat": "30.52708", 
            "name": "Talamba", 
            "long": "72.24011"
        }, 
        {
            "lat": "32.92973", 
            "name": "Talagang", 
            "long": "72.41583"
        }, 
        {
            "lat": "32.71667", 
            "name": "Surkhpur", 
            "long": "74.45"
        }, 
        {
            "lat": "31.86388", 
            "name": "Sukheke Mandi", 
            "long": "73.51122"
        }, 
        {
            "lat": "32.46162", 
            "name": "Sodhra", 
            "long": "74.18234"
        }, 
        {
            "lat": "31.82611", 
            "name": "Sill&#257;nw&#257;li", 
            "long": "72.53984"
        }, 
        {
            "lat": "32.49268", 
            "name": "Sialkot", 
            "long": "74.53134"
        }, 
        {
            "lat": "29.87967", 
            "name": "Shuj&#257;&#257;b&#257;d", 
            "long": "71.29313"
        }, 
        {
            "lat": "31.71306", 
            "name": "Sheikhupura", 
            "long": "73.97833"
        }, 
        {
            "lat": "31.46333", 
            "name": "Sharqpur", 
            "long": "74.1"
        }, 
        {
            "lat": "32.26232", 
            "name": "Shakargarr", 
            "long": "75.16683"
        }, 
        {
            "lat": "29.57646", 
            "name": "Shahr Sult&#257;n", 
            "long": "71.02116"
        }, 
        {
            "lat": "31.5709", 
            "name": "Shahkot", 
            "long": "73.48531"
        }, 
        {
            "lat": "32.08361", 
            "name": "Sargodha", 
            "long": "72.67111"
        }, 
        {
            "lat": "30.59489", 
            "name": "Sar&#257;i Sidhu", 
            "long": "71.96977"
        }, 
        {
            "lat": "32.90122", 
            "name": "Sar&#257;i &#256;lamg&#299;r", 
            "long": "73.75591"
        }, 
        {
            "lat": "31.71667", 
            "name": "Sangla Hill", 
            "long": "73.38333"
        }, 
        {
            "lat": "32.47455", 
            "name": "Sambri&#257;l", 
            "long": "74.35209"
        }, 
        {
            "lat": "31.97446", 
            "name": "S&#257;h&#299;w&#257;l", 
            "long": "72.33087"
        }, 
        {
            "lat": "30.66667", 
            "name": "Sahiwal", 
            "long": "73.1"
        }, 
        {
            "lat": "28.30623", 
            "name": "S&#257;diq&#257;b&#257;d", 
            "long": "70.13065"
        }, 
        {
            "lat": "30.88333", 
            "name": "Ren&#257;la Khurd", 
            "long": "73.6"
        }, 
        {
            "lat": "33.6007", 
            "name": "Rawalpindi", 
            "long": "73.0679"
        }, 
        {
            "lat": "29.10351", 
            "name": "R&#257;janpur", 
            "long": "70.32504"
        }, 
        {
            "lat": "31.22083", 
            "name": "R&#257;ja Jang", 
            "long": "74.25194"
        }, 
        {
            "lat": "31.25444", 
            "name": "R&#257;iwind", 
            "long": "74.21778"
        }, 
        {
            "lat": "31.75583", 
            "name": "Rabw&#257;h", 
            "long": "72.91972"
        }, 
        {
            "lat": "30.29238", 
            "name": "Q&#257;dirpur R&#257;n", 
            "long": "71.67117"
        }, 
        {
            "lat": "30.76667", 
            "name": "P&#299;r Mahal", 
            "long": "72.43333"
        }, 
        {
            "lat": "33.24023", 
            "name": "Pindi Gheb", 
            "long": "72.26609"
        }, 
        {
            "lat": "31.89781", 
            "name": "Pindi Bhatti&#257;n", 
            "long": "73.27302"
        }, 
        {
            "lat": "32.58789", 
            "name": "Pind D&#257;dan Kh&#257;n", 
            "long": "73.04564"
        }, 
        {
            "lat": "32.42973", 
            "name": "Ph&#257;lia", 
            "long": "73.57745"
        }, 
        {
            "lat": "31.01667", 
            "name": "Pattoki", 
            "long": "73.85"
        }, 
        {
            "lat": "32.26413", 
            "name": "Pasr&#363;r", 
            "long": "74.66343"
        }, 
        {
            "lat": "30.34104", 
            "name": "P&#257;kpattan", 
            "long": "73.38664"
        }, 
        {
            "lat": "30.80806", 
            "name": "Ok&#257;ra", 
            "long": "73.44583"
        }, 
        {
            "lat": "31.96283", 
            "name": "Naushahra Virk&#257;n", 
            "long": "73.97225"
        }, 
        {
            "lat": "32.1", 
            "name": "N&#257;row&#257;l", 
            "long": "74.88333"
        }, 
        {
            "lat": "31.9132", 
            "name": "N&#257;rang", 
            "long": "74.51756"
        }, 
        {
            "lat": "31.4475", 
            "name": "Nank&#257;na S&#257;hib", 
            "long": "73.69722"
        }, 
        {
            "lat": "30.07537", 
            "name": "Muzaffargarh", 
            "long": "71.19213"
        }, 
        {
            "lat": "30.89222", 
            "name": "Mustaf&#257;b&#257;d", 
            "long": "73.49889"
        }, 
        {
            "lat": "33.90836", 
            "name": "Murree", 
            "long": "73.3903"
        }, 
        {
            "lat": "31.8025", 
            "name": "Mur&#299;dke", 
            "long": "74.26167"
        }, 
        {
            "lat": "30.19556", 
            "name": "Mult&#257;n", 
            "long": "71.47528"
        }, 
        {
            "lat": "32.24861", 
            "name": "Mitha Tiw&#257;na", 
            "long": "72.11083"
        }, 
        {
            "lat": "30.163", 
            "name": "Minchin&#257;b&#257;d", 
            "long": "73.56854"
        }, 
        {
            "lat": "32.57409", 
            "name": "Mi&#257;nw&#257;li", 
            "long": "71.52639"
        }, 
        {
            "lat": "30.44004", 
            "name": "Mi&#257;n Chann&#363;n", 
            "long": "72.35431"
        }, 
        {
            "lat": "31.89306", 
            "name": "Mangla", 
            "long": "72.38167"
        }, 
        {
            "lat": "32.58339", 
            "name": "Mandi Bah&#257;udd&#299;n", 
            "long": "73.48431"
        }, 
        {
            "lat": "31.58417", 
            "name": "M&#257;n&#257;nw&#257;la", 
            "long": "73.68778"
        }, 
        {
            "lat": "30.83333", 
            "name": "M&#257;mu K&#257;njan", 
            "long": "72.8"
        }, 
        {
            "lat": "32.55362", 
            "name": "Malakw&#257;l", 
            "long": "73.21234"
        }, 
        {
            "lat": "29.80028", 
            "name": "Mailsi", 
            "long": "72.17583"
        }, 
        {
            "lat": "29.54051", 
            "name": "Lodhr&#257;n", 
            "long": "71.63357"
        }, 
        {
            "lat": "30.96128", 
            "name": "Leiah", 
            "long": "70.93904"
        }, 
        {
            "lat": "31.82414", 
            "name": "L&#257;li&#257;n", 
            "long": "72.79971"
        }, 
        {
            "lat": "32.70235", 
            "name": "L&#257;la M&#363;sa", 
            "long": "73.96"
        }, 
        {
            "lat": "31.54972", 
            "name": "Lahore", 
            "long": "74.34361"
        }, 
        {
            "lat": "32.15656", 
            "name": "Ladhew&#257;la War&#257;ich", 
            "long": "74.11701"
        }, 
        {
            "lat": "32.52848", 
            "name": "Kunj&#257;h", 
            "long": "73.97368"
        }, 
        {
            "lat": "32.45872", 
            "name": "Kundi&#257;n", 
            "long": "71.47754"
        }, 
        {
            "lat": "28.55221", 
            "name": "Kot Sam&#257;ba", 
            "long": "70.46837"
        }, 
        {
            "lat": "31.1725", 
            "name": "Kot R&#257;dha Kishan", 
            "long": "74.09972"
        }, 
        {
            "lat": "32.18954", 
            "name": "Kot M&#363;min", 
            "long": "73.02797"
        }, 
        {
            "lat": "32.5883", 
            "name": "Kotli Loh&#257;r&#257;n", 
            "long": "74.49321"
        }, 
        {
            "lat": "32.33298", 
            "name": "Kot Ghul&#257;m Muhammad", 
            "long": "74.54798"
        }, 
        {
            "lat": "30.4692", 
            "name": "Kot Addu", 
            "long": "70.96714"
        }, 
        {
            "lat": "32.29667", 
            "name": "Khush&#257;b", 
            "long": "72.3525"
        }, 
        {
            "lat": "31.50056", 
            "name": "Khurri&#257;nw&#257;la", 
            "long": "73.26667"
        }, 
        {
            "lat": "32.64793", 
            "name": "Khewra", 
            "long": "73.01058"
        }, 
        {
            "lat": "32.81493", 
            "name": "Kh&#257;ri&#257;n", 
            "long": "73.86359"
        }, 
        {
            "lat": "28.64534", 
            "name": "Kh&#257;npur", 
            "long": "70.6567"
        }, 
        {
            "lat": "29.9173", 
            "name": "Kh&#257;ngarh", 
            "long": "71.16184"
        }, 
        {
            "lat": "31.83167", 
            "name": "Kh&#257;ng&#257;h Dogr&#257;n", 
            "long": "73.62306"
        }, 
        {
            "lat": "29.58111", 
            "name": "Khairpur", 
            "long": "72.23639"
        }, 
        {
            "lat": "31.11556", 
            "name": "Kas&#363;r", 
            "long": "74.44667"
        }, 
        {
            "lat": "31.22741", 
            "name": "Karor", 
            "long": "70.94923"
        }, 
        {
            "lat": "30.76629", 
            "name": "Kanganpur", 
            "long": "74.12311"
        }, 
        {
            "lat": "33.74734", 
            "name": "K&#257;mra", 
            "long": "73.51107"
        }, 
        {
            "lat": "31.97444", 
            "name": "Kamoke", 
            "long": "74.22444"
        }, 
        {
            "lat": "30.43333", 
            "name": "Kam&#299;r", 
            "long": "73.05"
        }, 
        {
            "lat": "32.84389", 
            "name": "Kamar Mush&#257;ni", 
            "long": "71.36694"
        }, 
        {
            "lat": "30.73333", 
            "name": "Kam&#257;lia", 
            "long": "72.65"
        }, 
        {
            "lat": "32.15639", 
            "name": "Kal&#363;r Kot", 
            "long": "71.25944"
        }, 
        {
            "lat": "32.78333", 
            "name": "Kallar Kah&#257;r", 
            "long": "72.7"
        }, 
        {
            "lat": "31.97717", 
            "name": "K&#257;leke Mandi", 
            "long": "73.60259"
        }, 
        {
            "lat": "32.965", 
            "name": "K&#257;l&#257;b&#257;gh", 
            "long": "71.55697"
        }, 
        {
            "lat": "33.5913", 
            "name": "Kah&#363;ta", 
            "long": "73.38676"
        }, 
        {
            "lat": "29.62382", 
            "name": "Kohror Pakka", 
            "long": "71.91673"
        }, 
        {
            "lat": "31.36917", 
            "name": "K&#257;hna", 
            "long": "74.36528"
        }, 
        {
            "lat": "30.40677", 
            "name": "Kab&#299;rw&#257;la", 
            "long": "71.8667"
        }, 
        {
            "lat": "31.56781", 
            "name": "Jhumra", 
            "long": "73.18347"
        }, 
        {
            "lat": "32.93313", 
            "name": "Jhelum", 
            "long": "73.72637"
        }, 
        {
            "lat": "32.36139", 
            "name": "Jhaw&#257;ri&#257;n", 
            "long": "72.62278"
        }, 
        {
            "lat": "31.27154", 
            "name": "Jhang Sadr", 
            "long": "72.32842"
        }, 
        {
            "lat": "32.2898", 
            "name": "Jauhar&#257;b&#257;d", 
            "long": "72.2813"
        }, 
        {
            "lat": "29.51654", 
            "name": "Jatoi Shim&#257;li", 
            "long": "70.85032"
        }, 
        {
            "lat": "31.33333", 
            "name": "Jar&#257;nw&#257;la", 
            "long": "73.43333"
        }, 
        {
            "lat": "33.42985", 
            "name": "Jand", 
            "long": "72.01928"
        }, 
        {
            "lat": "29.64414", 
            "name": "J&#257;mpur", 
            "long": "70.59544"
        }, 
        {
            "lat": "29.50687", 
            "name": "Jal&#257;lpur P&#299;rw&#257;la", 
            "long": "71.21917"
        }, 
        {
            "lat": "32.63744", 
            "name": "Jal&#257;lpur", 
            "long": "74.21829"
        }, 
        {
            "lat": "31.80552", 
            "name": "Jah&#257;ni&#257;n Sh&#257;h", 
            "long": "72.27711"
        }, 
        {
            "lat": "30.74179", 
            "name": "Hujra", 
            "long": "73.82358"
        }, 
        {
            "lat": "33.90914", 
            "name": "Hazro", 
            "long": "72.49212"
        }, 
        {
            "lat": "30.45016", 
            "name": "Haveli", 
            "long": "73.69888"
        }, 
        {
            "lat": "29.71222", 
            "name": "H&#257;silpur", 
            "long": "72.55528"
        }, 
        {
            "lat": "30.43333", 
            "name": "Hasan Abd&#257;l", 
            "long": "72.7"
        }, 
        {
            "lat": "29.61333", 
            "name": "Haru Zbad", 
            "long": "73.13889"
        }, 
        {
            "lat": "32.27917", 
            "name": "Harnoli", 
            "long": "71.55389"
        }, 
        {
            "lat": "32.06786", 
            "name": "H&#257;fiz&#257;b&#257;d", 
            "long": "73.68545"
        }, 
        {
            "lat": "32.64132", 
            "name": "Had&#257;li", 
            "long": "74.56904"
        }, 
        {
            "lat": "32.57284", 
            "name": "Gujr&#257;t", 
            "long": "74.07897"
        }, 
        {
            "lat": "32.16167", 
            "name": "Gujr&#257;nw&#257;la", 
            "long": "74.18831"
        }, 
        {
            "lat": "33.25579", 
            "name": "G&#363;jar Kh&#257;n", 
            "long": "73.30255"
        }, 
        {
            "lat": "31.14874", 
            "name": "Gojra", 
            "long": "72.68656"
        }, 
        {
            "lat": "30.83388", 
            "name": "Garh Mah&#257;r&#257;ja", 
            "long": "71.90529"
        }, 
        {
            "lat": "29.1925", 
            "name": "Fort Abb&#257;s", 
            "long": "72.85361"
        }, 
        {
            "lat": "32.18333", 
            "name": "Fazalpur", 
            "long": "75.06667"
        }, 
        {
            "lat": "31.17959", 
            "name": "Chak Two Hundred Forty-Nine TDA", 
            "long": "71.20946"
        }, 
        {
            "lat": "31.88722", 
            "name": "Faruka", 
            "long": "72.4144"
        }, 
        {
            "lat": "29.46631", 
            "name": "Faq&#299;rw&#257;li", 
            "long": "73.03403"
        }, 
        {
            "lat": "31.41667", 
            "name": "Faisal&#257;b&#257;d", 
            "long": "73.08333"
        }, 
        {
            "lat": "32.04219", 
            "name": "Emin&#257;b&#257;d", 
            "long": "74.25943"
        }, 
        {
            "lat": "29.7995", 
            "name": "Duny&#257;pur", 
            "long": "71.71958"
        }, 
        {
            "lat": "29.74931", 
            "name": "Dunga Bunga", 
            "long": "73.24324"
        }, 
        {
            "lat": "31.83587", 
            "name": "Dullew&#257;la", 
            "long": "71.43625"
        }, 
        {
            "lat": "30.67091", 
            "name": "D&#299;p&#257;lpur", 
            "long": "73.65292"
        }, 
        {
            "lat": "32.63976", 
            "name": "Dinga", 
            "long": "73.72201"
        }, 
        {
            "lat": "31.21667", 
            "name": "Dijkot", 
            "long": "72.98333"
        }, 
        {
            "lat": "29.57991", 
            "name": "Dhanot", 
            "long": "71.75213"
        }, 
        {
            "lat": "30.05614", 
            "name": "Dera Ghazi Khan", 
            "long": "70.63477"
        }, 
        {
            "lat": "32.87498", 
            "name": "D&#257;&#363;d Khel", 
            "long": "71.57013"
        }, 
        {
            "lat": "32.32426", 
            "name": "Daska", 
            "long": "74.34974"
        }, 
        {
            "lat": "31.79123", 
            "name": "Darya Kh&#257;n", 
            "long": "71.10394"
        }, 
        {
            "lat": "29.55767", 
            "name": "D&#257;jal", 
            "long": "70.37615"
        }, 
        {
            "lat": "30.96397", 
            "name": "Ch&#363;ni&#257;n", 
            "long": "73.98029"
        }, 
        {
            "lat": "31.75", 
            "name": "Ch&#363;har K&#257;na", 
            "long": "73.8"
        }, 
        {
            "lat": "32.72006", 
            "name": "Choa Said&#257;n Sh&#257;h", 
            "long": "72.98486"
        }, 
        {
            "lat": "29.8", 
            "name": "Chishti&#257;n Mandi", 
            "long": "72.86667"
        }, 
        {
            "lat": "31.72", 
            "name": "Chiniot", 
            "long": "72.97889"
        }, 
        {
            "lat": "30.53333", 
            "name": "Ch&#299;ch&#257;watni", 
            "long": "72.7"
        }, 
        {
            "lat": "32.34692", 
            "name": "Chawinda", 
            "long": "74.70612"
        }, 
        {
            "lat": "32.93338", 
            "name": "Chakw&#257;l", 
            "long": "72.85853"
        }, 
        {
            "lat": "30.75", 
            "name": "Chak &#256;zam Saffo", 
            "long": "73.03333"
        }, 
        {
            "lat": "30.16667", 
            "name": "B&#363;rew&#257;la", 
            "long": "72.65"
        }, 
        {
            "lat": "32.42888", 
            "name": "Bhop&#257;lw&#257;la", 
            "long": "74.3633"
        }, 
        {
            "lat": "32.48318", 
            "name": "Bhera", 
            "long": "72.9097"
        }, 
        {
            "lat": "31.56918", 
            "name": "Bhaw&#257;na", 
            "long": "72.64899"
        }, 
        {
            "lat": "32.27204", 
            "name": "Bhalw&#257;l", 
            "long": "72.90425"
        }, 
        {
            "lat": "31.62525", 
            "name": "Bhakkar", 
            "long": "71.06574"
        }, 
        {
            "lat": "31.2", 
            "name": "Bh&#257;i Pheru", 
            "long": "73.95"
        }, 
        {
            "lat": "30.58319", 
            "name": "Bas&#299;rpur", 
            "long": "73.829"
        }, 
        {
            "lat": "29.4", 
            "name": "Bah&#257;walpur", 
            "long": "71.68333"
        }, 
        {
            "lat": "29.99866", 
            "name": "Bah&#257;walnagar", 
            "long": "73.2536"
        }, 
        {
            "lat": "31.99283", 
            "name": "Baddomalhi", 
            "long": "74.66833"
        }, 
        {
            "lat": "33.77311", 
            "name": "Attock City", 
            "long": "72.3741"
        }, 
        {
            "lat": "30.29399", 
            "name": "&#256;rifw&#257;la", 
            "long": "73.07354"
        }, 
        {
            "lat": "29.38464", 
            "name": "Al&#299;pur", 
            "long": "70.91157"
        }, 
        {
            "lat": "29.14309", 
            "name": "Ahmadpur East", 
            "long": "71.25976"
        }, 
        {
            "lat": "30.55083", 
            "name": "Bah&#257;walnagar", 
            "long": "73.39083"
        }, 
        {
            "lat": "30.67539", 
            "name": "Ahmadpur Si&#257;l", 
            "long": "71.74828"
        }, 
        {
            "lat": "32.55492", 
            "name": "Malakwal City", 
            "long": "73.2122"
        }
    ], 
    "05": [
        {
            "lat": "24.38953", 
            "name": "Chuhar Jam&#257;li", 
            "long": "67.99234"
        }, 
        {
            "lat": "27.59102", 
            "name": "P&#299;r jo Goth", 
            "long": "68.61786"
        }, 
        {
            "lat": "27.52948", 
            "name": "Khairpur", 
            "long": "68.7617"
        }, 
        {
            "lat": "27.44808", 
            "name": "W&#257;r&#257;h", 
            "long": "67.79776"
        }, 
        {
            "lat": "25.36157", 
            "name": "Umarkot", 
            "long": "69.73624"
        }, 
        {
            "lat": "28.16524", 
            "name": "Ubauro", 
            "long": "69.7289"
        }, 
        {
            "lat": "28.24035", 
            "name": "Thul", 
            "long": "68.77588"
        }, 
        {
            "lat": "24.74745", 
            "name": "Thatta", 
            "long": "67.92353"
        }, 
        {
            "lat": "26.94423", 
            "name": "Th&#257;ru Sh&#257;h", 
            "long": "68.11602"
        }, 
        {
            "lat": "25.12301", 
            "name": "Tando Muhammad Kh&#257;n", 
            "long": "68.53577"
        }, 
        {
            "lat": "25.42718", 
            "name": "Tando J&#257;m", 
            "long": "68.53619"
        }, 
        {
            "lat": "25.46263", 
            "name": "Tando All&#257;hy&#257;r", 
            "long": "68.71923"
        }, 
        {
            "lat": "25.76374", 
            "name": "Tando &#256;dam", 
            "long": "68.66098"
        }, 
        {
            "lat": "24.88333", 
            "name": "Talh&#257;r", 
            "long": "68.81667"
        }, 
        {
            "lat": "27.70516", 
            "name": "Sukkur", 
            "long": "68.85738"
        }, 
        {
            "lat": "27.03333", 
            "name": "S&#299;ta Road", 
            "long": "67.85"
        }, 
        {
            "lat": "26.03031", 
            "name": "Sinjhoro", 
            "long": "68.80898"
        }, 
        {
            "lat": "27.95706", 
            "name": "Shik&#257;rpur", 
            "long": "68.63789"
        }, 
        {
            "lat": "26.15497", 
            "name": "Sh&#257;hpur Ch&#257;kar", 
            "long": "68.65093"
        }, 
        {
            "lat": "25.92406", 
            "name": "Sh&#257;hd&#257;dpur", 
            "long": "68.61999"
        }, 
        {
            "lat": "27.84771", 
            "name": "Sh&#257;hd&#257;dkot", 
            "long": "67.9055"
        }, 
        {
            "lat": "26.42794", 
            "name": "Sehw&#257;n", 
            "long": "67.863"
        }, 
        {
            "lat": "26.04656", 
            "name": "S&#257;nghar", 
            "long": "68.9481"
        }, 
        {
            "lat": "26.13839", 
            "name": "Sakrand", 
            "long": "68.27361"
        }, 
        {
            "lat": "27.69223", 
            "name": "Rohri", 
            "long": "68.89506"
        }, 
        {
            "lat": "27.80296", 
            "name": "Ratodero", 
            "long": "68.28708"
        }, 
        {
            "lat": "27.28792", 
            "name": "R&#257;n&#299;pur", 
            "long": "68.50505"
        }, 
        {
            "lat": "27.18333", 
            "name": "R&#257;dhan", 
            "long": "67.95"
        }, 
        {
            "lat": "27.58676", 
            "name": "Kambar", 
            "long": "68.00103"
        }, 
        {
            "lat": "27.85685", 
            "name": "P&#257;no &#256;qil", 
            "long": "69.11156"
        }, 
        {
            "lat": "26.77475", 
            "name": "Pad &#298;dan", 
            "long": "68.30197"
        }, 
        {
            "lat": "26.24833", 
            "name": "Naw&#257;bsh&#257;h", 
            "long": "68.40955"
        }, 
        {
            "lat": "26.84238", 
            "name": "Naushahro F&#299;roz", 
            "long": "68.12298"
        }, 
        {
            "lat": "27.66477", 
            "name": "Naudero", 
            "long": "68.36217"
        }, 
        {
            "lat": "27.38091", 
            "name": "Nas&#299;r&#257;b&#257;d", 
            "long": "67.91678"
        }, 
        {
            "lat": "24.85869", 
            "name": "Naukot", 
            "long": "69.40238"
        }, 
        {
            "lat": "26.66459", 
            "name": "Moro", 
            "long": "68.00156"
        }, 
        {
            "lat": "24.73183", 
            "name": "Mithi", 
            "long": "69.79811"
        }, 
        {
            "lat": "28.02271", 
            "name": "M&#299;rpur M&#257;thelo", 
            "long": "69.54886"
        }, 
        {
            "lat": "25.5251", 
            "name": "Mirpur Khas", 
            "long": "69.0159"
        }, 
        {
            "lat": "27.18067", 
            "name": "Mehar", 
            "long": "67.82288"
        }, 
        {
            "lat": "25.04312", 
            "name": "M&#257;tli", 
            "long": "68.65568"
        }, 
        {
            "lat": "25.59609", 
            "name": "Mati&#257;ri", 
            "long": "68.44666"
        }, 
        {
            "lat": "24.9424", 
            "name": "Malir Cantonment", 
            "long": "67.2066"
        }, 
        {
            "lat": "27.55508", 
            "name": "L&#257;rk&#257;na", 
            "long": "68.21414"
        }, 
        {
            "lat": "25.17847", 
            "name": "Kunri", 
            "long": "69.56913"
        }, 
        {
            "lat": "25.366", 
            "name": "Kotri", 
            "long": "68.31216"
        }, 
        {
            "lat": "27.34272", 
            "name": "Kot Diji", 
            "long": "68.70834"
        }, 
        {
            "lat": "27.84358", 
            "name": "Kh&#257;npur", 
            "long": "69.41373"
        }, 
        {
            "lat": "27.09359", 
            "name": "Khairpur Nathan Sh&#257;h", 
            "long": "67.73366"
        }, 
        {
            "lat": "28.06526", 
            "name": "Khairpur", 
            "long": "69.70076"
        }, 
        {
            "lat": "28.43333", 
            "name": "Kashmor", 
            "long": "69.58333"
        }, 
        {
            "lat": "24.9056", 
            "name": "Karachi", 
            "long": "67.0822"
        }, 
        {
            "lat": "27.06011", 
            "name": "Kandi&#257;ro", 
            "long": "68.20909"
        }, 
        {
            "lat": "28.24396", 
            "name": "Kandhkot", 
            "long": "69.18235"
        }, 
        {
            "lat": "26.69206", 
            "name": "Johi", 
            "long": "67.6133"
        }, 
        {
            "lat": "25.95507", 
            "name": "Jhol", 
            "long": "68.88821"
        }, 
        {
            "lat": "28.281", 
            "name": "Jacob&#257;b&#257;d", 
            "long": "68.43876"
        }, 
        {
            "lat": "25.39242", 
            "name": "Hyderabad", 
            "long": "68.37366"
        }, 
        {
            "lat": "27.21088", 
            "name": "Hingorja", 
            "long": "68.41598"
        }, 
        {
            "lat": "28.00604", 
            "name": "Ghotki", 
            "long": "69.31608"
        }, 
        {
            "lat": "28.13906", 
            "name": "Ghauspur", 
            "long": "69.08305"
        }, 
        {
            "lat": "24.74241", 
            "name": "Gh&#257;ro", 
            "long": "67.58565"
        }, 
        {
            "lat": "27.35145", 
            "name": "Gambat", 
            "long": "68.52051"
        }, 
        {
            "lat": "25.15579", 
            "name": "Digri", 
            "long": "69.11129"
        }, 
        {
            "lat": "25.5", 
            "name": "Dhoro N&#257;ro", 
            "long": "69.56667"
        }, 
        {
            "lat": "26.45834", 
            "name": "Daur", 
            "long": "68.31915"
        }, 
        {
            "lat": "26.73287", 
            "name": "Dadu", 
            "long": "67.77631"
        }, 
        {
            "lat": "25.51667", 
            "name": "Chor", 
            "long": "69.76667"
        }, 
        {
            "lat": "25.80437", 
            "name": "Bhit Sh&#257;h", 
            "long": "68.49265"
        }, 
        {
            "lat": "26.55831", 
            "name": "Bh&#257;n", 
            "long": "67.72139"
        }, 
        {
            "lat": "24.65599", 
            "name": "Bad&#299;n", 
            "long": "68.83841"
        }, 
        {
            "lat": "27.34167", 
            "name": "New B&#257;d&#257;h", 
            "long": "68.03194"
        }, 
        {
            "lat": "25.13111", 
            "name": "Tando Ghul&#257;m Ali", 
            "long": "68.86759"
        }, 
        {
            "lat": "27.2127", 
            "name": "Seth&#257;rja Old", 
            "long": "68.46883"
        }
    ], 
    "08": [
        {
            "lat": "33.72148", 
            "name": "Islamabad", 
            "long": "73.04329"
        }
    ]
}