{
    "11": [
        {
            "lat": "-3.55342", 
            "name": "Wewak", 
            "long": "143.62678"
        }
    ], 
    "10": [
        {
            "lat": "-4.35202", 
            "name": "Kokopo", 
            "long": "152.26327"
        }
    ], 
    "12": [
        {
            "lat": "-5.22465", 
            "name": "Madang", 
            "long": "145.79656"
        }
    ], 
    "20": [
        {
            "lat": "-9.44314", 
            "name": "Port Moresby", 
            "long": "147.17972"
        }
    ], 
    "14": [
        {
            "lat": "-6.72208", 
            "name": "Lae", 
            "long": "146.98469"
        }, 
        {
            "lat": "-7.19955", 
            "name": "Bulolo", 
            "long": "146.64555"
        }
    ], 
    "04": [
        {
            "lat": "-8.75931", 
            "name": "Popondetta", 
            "long": "148.24095"
        }
    ], 
    "05": [
        {
            "lat": "-6.17608", 
            "name": "Mendi", 
            "long": "143.65134"
        }
    ], 
    "16": [
        {
            "lat": "-5.85746", 
            "name": "Mount Hagen", 
            "long": "144.23058"
        }
    ], 
    "17": [
        {
            "lat": "-5.55021", 
            "name": "Kimbe", 
            "long": "150.14285"
        }
    ], 
    "06": [
        {
            "lat": "-9.07628", 
            "name": "Daru", 
            "long": "143.20919"
        }
    ], 
    "09": [
        {
            "lat": "-6.08336", 
            "name": "Goroka", 
            "long": "145.38735"
        }
    ], 
    "07": [
        {
            "lat": "-6.21319", 
            "name": "Arawa", 
            "long": "155.53674"
        }
    ]
}