{
    "11": [
        {
            "lat": "20.00054", 
            "name": "Qal&#8216;at B&#299;shah", 
            "long": "42.6052"
        }, 
        {
            "lat": "18.3", 
            "name": "Khamis Mushait", 
            "long": "42.73333"
        }, 
        {
            "lat": "19.14547", 
            "name": "An Nim&#257;&#351;", 
            "long": "42.12009"
        }, 
        {
            "lat": "18.21639", 
            "name": "Abha", 
            "long": "42.50528"
        }
    ], 
    "10": [
        {
            "lat": "26.29945", 
            "name": "Az Zulfi", 
            "long": "44.81542"
        }, 
        {
            "lat": "20.46067", 
            "name": "As Sulayyil", 
            "long": "45.57792"
        }, 
        {
            "lat": "24.68773", 
            "name": "Riyadh", 
            "long": "46.72185"
        }, 
        {
            "lat": "23.9065", 
            "name": "&#8216;Af&#299;f", 
            "long": "42.91724"
        }, 
        {
            "lat": "23.99104", 
            "name": "Ad Dilam", 
            "long": "47.16181"
        }, 
        {
            "lat": "24.50772", 
            "name": "Ad Daw&#257;dim&#299;", 
            "long": "44.39237"
        }
    ], 
    "13": [
        {
            "lat": "27.52188", 
            "name": "Hayil", 
            "long": "41.69073"
        }
    ], 
    "06": [
        {
            "lat": "26.57332", 
            "name": "T&#257;r&#363;t", 
            "long": "50.03694"
        }, 
        {
            "lat": "26.48522", 
            "name": "Sayh&#257;t", 
            "long": "50.04046"
        }, 
        {
            "lat": "26.64986", 
            "name": "&#350;afw&#225;", 
            "long": "49.95223"
        }, 
        {
            "lat": "26.70791", 
            "name": "Ra&#7721;&#299;mah", 
            "long": "50.06194"
        }, 
        {
            "lat": "25.9371", 
            "name": "Abqaiq", 
            "long": "49.67761"
        }, 
        {
            "lat": "26.28864", 
            "name": "Dhahran", 
            "long": "50.11396"
        }, 
        {
            "lat": "25.36276", 
            "name": "A&#355; &#354;araf", 
            "long": "49.72504"
        }, 
        {
            "lat": "28.31117", 
            "name": "Al Qay&#351;&#363;mah", 
            "long": "46.12729"
        }, 
        {
            "lat": "26.5208", 
            "name": "Al Qa&#355;&#299;f", 
            "long": "50.02452"
        }, 
        {
            "lat": "25.38333", 
            "name": "Al Munayzilah", 
            "long": "49.66667"
        }, 
        {
            "lat": "25.41", 
            "name": "Al Mubarraz", 
            "long": "49.58083"
        }, 
        {
            "lat": "26.27944", 
            "name": "Khobar", 
            "long": "50.20833"
        }, 
        {
            "lat": "28.43905", 
            "name": "Al Khafj&#299;", 
            "long": "48.49132"
        }, 
        {
            "lat": "27.01122", 
            "name": "Al Jubayl", 
            "long": "49.65825"
        }, 
        {
            "lat": "25.36457", 
            "name": "Al Huf&#363;f", 
            "long": "49.56532"
        }, 
        {
            "lat": "25.43333", 
            "name": "Al Ba&#355;&#355;&#257;l&#299;yah", 
            "long": "49.63333"
        }, 
        {
            "lat": "26.43442", 
            "name": "Dammam", 
            "long": "50.10326"
        }
    ], 
    "14": [
        {
            "lat": "21.21406", 
            "name": "Turabah", 
            "long": "41.6331"
        }, 
        {
            "lat": "22.79856", 
            "name": "R&#257;bigh", 
            "long": "39.03493"
        }, 
        {
            "lat": "21.42664", 
            "name": "Mecca", 
            "long": "39.82563"
        }, 
        {
            "lat": "21.54238", 
            "name": "Jeddah", 
            "long": "39.19797"
        }, 
        {
            "lat": "21.27028", 
            "name": "Ta&#8217;if", 
            "long": "40.41583"
        }, 
        {
            "lat": "21.61694", 
            "name": "Al Jum&#363;m", 
            "long": "39.69806"
        }, 
        {
            "lat": "21.0721", 
            "name": "Ash Shaf&#257;", 
            "long": "40.31185"
        }
    ], 
    "17": [
        {
            "lat": "16.59601", 
            "name": "&#350;&#257;mitah", 
            "long": "42.94435"
        }, 
        {
            "lat": "17.1495", 
            "name": "&#350;aby&#257;", 
            "long": "42.62537"
        }, 
        {
            "lat": "16.88917", 
            "name": "Jizan", 
            "long": "42.55111"
        }, 
        {
            "lat": "16.96887", 
            "name": "Ab&#363; &#8216;Ar&#299;sh", 
            "long": "42.83251"
        }
    ], 
    "05": [
        {
            "lat": "24.08912", 
            "name": "Yanbu&#8216; al Ba&#7721;r", 
            "long": "38.06374"
        }, 
        {
            "lat": "24.49258", 
            "name": "Sul&#355;&#257;nah", 
            "long": "39.58572"
        }, 
        {
            "lat": "23.78292", 
            "name": "Badr &#7720;unayn", 
            "long": "38.79047"
        }, 
        {
            "lat": "26.60853", 
            "name": "Al &#8216;Ul&#225;", 
            "long": "37.92316"
        }, 
        {
            "lat": "24.46861", 
            "name": "Medina", 
            "long": "39.61417"
        }
    ], 
    "19": [
        {
            "lat": "25.02126", 
            "name": "Umm Lajj", 
            "long": "37.2685"
        }, 
        {
            "lat": "28.3998", 
            "name": "Tab&#363;k", 
            "long": "36.57151"
        }, 
        {
            "lat": "27.35134", 
            "name": "Duba", 
            "long": "35.69014"
        }, 
        {
            "lat": "26.24551", 
            "name": "Al Wajh", 
            "long": "36.45249"
        }
    ], 
    "02": [
        {
            "lat": "20.01288", 
            "name": "Al B&#257;&#7721;ah", 
            "long": "41.46767"
        }
    ], 
    "08": [
        {
            "lat": "26.32599", 
            "name": "Buraydah", 
            "long": "43.97497"
        }, 
        {
            "lat": "25.86944", 
            "name": "Ar Rass", 
            "long": "43.4973"
        }, 
        {
            "lat": "25.86012", 
            "name": "Al Mithnab", 
            "long": "44.22228"
        }, 
        {
            "lat": "26.14422", 
            "name": "Al Bukayr&#299;yah", 
            "long": "43.65933"
        }, 
        {
            "lat": "26.08427", 
            "name": "Unaizah", 
            "long": "43.99355"
        }
    ], 
    "16": [
        {
            "lat": "17.49326", 
            "name": "Najr&#257;n", 
            "long": "44.12766"
        }
    ], 
    "15": [
        {
            "lat": "31.67252", 
            "name": "&#354;urayf", 
            "long": "38.66374"
        }, 
        {
            "lat": "30.97531", 
            "name": "&#8216;Ar&#8216;ar", 
            "long": "41.03808"
        }
    ], 
    "20": [
        {
            "lat": "30.49987", 
            "name": "&#354;ubarjal", 
            "long": "38.21603"
        }, 
        {
            "lat": "29.96974", 
            "name": "Sak&#257;k&#257;", 
            "long": "40.20641"
        }, 
        {
            "lat": "31.33176", 
            "name": "Al Qurayy&#257;t", 
            "long": "37.34282"
        }
    ]
}