{
    "39": [
        {
            "lat": "13.51667", 
            "name": "Doka", 
            "long": "35.76667"
        }, 
        {
            "lat": "14.03493", 
            "name": "Al Qadarif", 
            "long": "35.38344"
        }, 
        {
            "lat": "13.41667", 
            "name": "Al &#7720;aw&#257;tah", 
            "long": "34.63333"
        }
    ], 
    "38": [
        {
            "lat": "14.40118", 
            "name": "Wad Medani", 
            "long": "33.51989"
        }, 
        {
            "lat": "14.2459", 
            "name": "Al Man&#257;qil", 
            "long": "32.9891"
        }, 
        {
            "lat": "14.9398", 
            "name": "Al Hil&#257;liyya", 
            "long": "33.234"
        }, 
        {
            "lat": "14.75264", 
            "name": "Al Hasaheisa", 
            "long": "33.29836"
        }
    ], 
    "58": [
        {
            "lat": "13.15", 
            "name": "Sinja", 
            "long": "33.93333"
        }, 
        {
            "lat": "13.56907", 
            "name": "Sinnar", 
            "long": "33.56718"
        }, 
        {
            "lat": "13.41667", 
            "name": "Maiurno", 
            "long": "33.66667"
        }, 
        {
            "lat": "14.0361", 
            "name": "Kin&#257;na", 
            "long": "33.1712"
        }, 
        {
            "lat": "13.31667", 
            "name": "As S&#363;k&#299;", 
            "long": "33.88333"
        }, 
        {
            "lat": "13.2", 
            "name": "Ad Dindar", 
            "long": "34.16667"
        }
    ], 
    "55": [
        {
            "lat": "13.62793", 
            "name": "El Fasher", 
            "long": "25.34936"
        }
    ], 
    "43": [
        {
            "lat": "18.55", 
            "name": "Kuraymah", 
            "long": "31.85"
        }
    ], 
    "56": [
        {
            "lat": "12.9061", 
            "name": "Umm Ruwaba", 
            "long": "31.2158"
        }, 
        {
            "lat": "13.7", 
            "name": "B&#257;rah", 
            "long": "30.36667"
        }, 
        {
            "lat": "12.71667", 
            "name": "Ar Rahad", 
            "long": "30.65"
        }, 
        {
            "lat": "12.7", 
            "name": "An Nuh&#363;d", 
            "long": "28.43333"
        }, 
        {
            "lat": "13.18421", 
            "name": "El Obeid", 
            "long": "30.21669"
        }, 
        {
            "lat": "12.35", 
            "name": "Ab&#363; Zabad", 
            "long": "29.25"
        }
    ], 
    "42": [
        {
            "lat": "11.8659", 
            "name": "Ar Ruseris", 
            "long": "34.3869"
        }, 
        {
            "lat": "11.7891", 
            "name": "Ad-Damazin", 
            "long": "34.3592"
        }
    ], 
    "29": [
        {
            "lat": "15.64453", 
            "name": "Omdurman", 
            "long": "32.47773"
        }, 
        {
            "lat": "15.55177", 
            "name": "Khartoum", 
            "long": "32.53241"
        }
    ], 
    "53": [
        {
            "lat": "16.6915", 
            "name": "Shendi", 
            "long": "33.4341"
        }, 
        {
            "lat": "18.02158", 
            "name": "Berber", 
            "long": "33.98299"
        }, 
        {
            "lat": "17.70217", 
            "name": "Atbara", 
            "long": "33.98638"
        }, 
        {
            "lat": "18.26197", 
            "name": "El Bauga", 
            "long": "33.90812"
        }, 
        {
            "lat": "17.59278", 
            "name": "Ad Damar", 
            "long": "33.95917"
        }
    ], 
    "41": [
        {
            "lat": "13.01667", 
            "name": "Tandalt&#299;", 
            "long": "31.86667"
        }, 
        {
            "lat": "13.18087", 
            "name": "Rabak", 
            "long": "32.73999"
        }, 
        {
            "lat": "13.1629", 
            "name": "Kosti", 
            "long": "32.66347"
        }, 
        {
            "lat": "14.8648", 
            "name": "Al Qi&#355;ena", 
            "long": "32.3668"
        }, 
        {
            "lat": "14.0012", 
            "name": "Ad Douiem", 
            "long": "32.3116"
        }
    ], 
    "60": [
        {
            "lat": "11.46186", 
            "name": "El Daein", 
            "long": "26.12583"
        }
    ], 
    "61": [
        {
            "lat": "12.9096", 
            "name": "Zalingei", 
            "long": "23.47406"
        }
    ], 
    "36": [
        {
            "lat": "18.4254", 
            "name": "Tok&#257;r", 
            "long": "37.729"
        }, 
        {
            "lat": "19.1059", 
            "name": "Saw&#257;kin", 
            "long": "37.3321"
        }, 
        {
            "lat": "19.61745", 
            "name": "Port Sudan", 
            "long": "37.21644"
        }
    ], 
    "47": [
        {
            "lat": "13.45262", 
            "name": "Geneina", 
            "long": "22.44725"
        }
    ], 
    "52": [
        {
            "lat": "15.45099", 
            "name": "Kassala", 
            "long": "36.39998"
        }
    ], 
    "50": [
        {
            "lat": "11.01667", 
            "name": "Kadugli", 
            "long": "29.71667"
        }, 
        {
            "lat": "12.05", 
            "name": "Dilling", 
            "long": "29.65"
        }, 
        {
            "lat": "11.03333", 
            "name": "Al Mijlad", 
            "long": "27.73333"
        }, 
        {
            "lat": "11.4562", 
            "name": "Abu Jibeha", 
            "long": "31.2285"
        }
    ]
}