{
    "52": [
        {
            "lat": "41.13139", 
            "name": "Unieh", 
            "long": "37.2825"
        }, 
        {
            "lat": "40.98472", 
            "name": "Ordu", 
            "long": "37.87889"
        }, 
        {
            "lat": "40.87444", 
            "name": "Kumru", 
            "long": "37.26389"
        }, 
        {
            "lat": "40.82472", 
            "name": "Korgan", 
            "long": "37.34667"
        }, 
        {
            "lat": "40.78833", 
            "name": "G&#252;rgentepe", 
            "long": "37.60167"
        }, 
        {
            "lat": "41.02778", 
            "name": "Fatsa", 
            "long": "37.50139"
        }
    ], 
    "45": [
        {
            "lat": "38.49533", 
            "name": "Turgutlu", 
            "long": "27.6997"
        }, 
        {
            "lat": "39.18554", 
            "name": "Soma", 
            "long": "27.60945"
        }, 
        {
            "lat": "38.48258", 
            "name": "Salihli", 
            "long": "28.14774"
        }, 
        {
            "lat": "38.61202", 
            "name": "Manisa", 
            "long": "27.42647"
        }, 
        {
            "lat": "38.54726", 
            "name": "Kula", 
            "long": "28.64976"
        }, 
        {
            "lat": "39.10638", 
            "name": "K&#305;rka&#287;a&#231;", 
            "long": "27.66925"
        }, 
        {
            "lat": "39.04607", 
            "name": "Demirci", 
            "long": "28.65889"
        }, 
        {
            "lat": "38.35083", 
            "name": "Ala&#351;ehir", 
            "long": "28.51718"
        }, 
        {
            "lat": "38.91852", 
            "name": "Akhisar", 
            "long": "27.84006"
        }
    ], 
    "22": [
        {
            "lat": "41.26597", 
            "name": "Uzun Keupru", 
            "long": "26.6885"
        }, 
        {
            "lat": "40.85583", 
            "name": "Ke&#351;an", 
            "long": "26.63028"
        }, 
        {
            "lat": "41.67719", 
            "name": "Edirne", 
            "long": "26.55597"
        }
    ], 
    "59": [
        {
            "lat": "40.97801", 
            "name": "Tekirda&#287;", 
            "long": "27.50852"
        }, 
        {
            "lat": "40.89", 
            "name": "Malkara", 
            "long": "26.90111"
        }, 
        {
            "lat": "41.21311", 
            "name": "Hayrabolu", 
            "long": "27.10688"
        }, 
        {
            "lat": "41.15917", 
            "name": "&#199;orlu", 
            "long": "27.8"
        }, 
        {
            "lat": "41.28629", 
            "name": "&#199;erkezk&#246;y", 
            "long": "27.99939"
        }
    ], 
    "60": [
        {
            "lat": "40.30306", 
            "name": "Zile", 
            "long": "35.88639"
        }, 
        {
            "lat": "40.3875", 
            "name": "Turhal", 
            "long": "36.08111"
        }, 
        {
            "lat": "40.31389", 
            "name": "Tokat", 
            "long": "36.55444"
        }, 
        {
            "lat": "40.59167", 
            "name": "Niksar", 
            "long": "36.95167"
        }, 
        {
            "lat": "40.66889", 
            "name": "Erbaa", 
            "long": "36.5675"
        }
    ], 
    "61": [
        {
            "lat": "40.95411", 
            "name": "Yomra", 
            "long": "39.86405"
        }, 
        {
            "lat": "41.04583", 
            "name": "Vakf&#305;kebir", 
            "long": "39.27639"
        }, 
        {
            "lat": "41.005", 
            "name": "Trabzon", 
            "long": "39.72694"
        }, 
        {
            "lat": "40.91258", 
            "name": "S&#252;rmene", 
            "long": "40.11676"
        }, 
        {
            "lat": "40.94458", 
            "name": "Of", 
            "long": "40.26747"
        }, 
        {
            "lat": "41.05199", 
            "name": "Be&#351;ikd&#252;z&#252;", 
            "long": "39.22845"
        }, 
        {
            "lat": "40.94958", 
            "name": "Arsin", 
            "long": "39.92756"
        }, 
        {
            "lat": "40.93854", 
            "name": "Arakl&#305;", 
            "long": "40.05842"
        }, 
        {
            "lat": "41.02121", 
            "name": "Ak&#231;aabat", 
            "long": "39.57146"
        }
    ], 
    "62": [
        {
            "lat": "39.10829", 
            "name": "Tunceli", 
            "long": "39.54711"
        }
    ], 
    "63": [
        {
            "lat": "37.23528", 
            "name": "Viran&#351;ehir", 
            "long": "39.76306"
        }, 
        {
            "lat": "37.16708", 
            "name": "&#350;anl&#305;urfa", 
            "long": "38.79392"
        }, 
        {
            "lat": "36.97614", 
            "name": "Suru&#231;", 
            "long": "38.42495"
        }, 
        {
            "lat": "37.75503", 
            "name": "Siverek", 
            "long": "39.31667"
        }, 
        {
            "lat": "37.58687", 
            "name": "Hilvan", 
            "long": "38.95505"
        }, 
        {
            "lat": "36.84722", 
            "name": "Ceylanp&#305;nar", 
            "long": "40.05"
        }, 
        {
            "lat": "37.3625", 
            "name": "Bozova", 
            "long": "38.52667"
        }, 
        {
            "lat": "37.02944", 
            "name": "Birecik", 
            "long": "37.99028"
        }, 
        {
            "lat": "36.71111", 
            "name": "Ak&#231;akale", 
            "long": "38.9475"
        }
    ], 
    "64": [
        {
            "lat": "38.67351", 
            "name": "U&#351;ak", 
            "long": "29.4058"
        }, 
        {
            "lat": "38.73707", 
            "name": "Banaz", 
            "long": "29.75194"
        }
    ], 
    "65": [
        {
            "lat": "38.49239", 
            "name": "Van", 
            "long": "43.38311"
        }, 
        {
            "lat": "39.02869", 
            "name": "Erci&#351;", 
            "long": "43.35864"
        }
    ], 
    "66": [
        {
            "lat": "39.82", 
            "name": "Yozgat", 
            "long": "34.80444"
        }, 
        {
            "lat": "39.63806", 
            "name": "Yerk&#246;y", 
            "long": "34.46722"
        }, 
        {
            "lat": "39.81012", 
            "name": "Sorgun", 
            "long": "35.18596"
        }, 
        {
            "lat": "39.66028", 
            "name": "Akda&#287;madeni", 
            "long": "35.88361"
        }
    ], 
    "69": [
        {
            "lat": "40.12978", 
            "name": "Kelkit", 
            "long": "39.43607"
        }, 
        {
            "lat": "40.46028", 
            "name": "Gumushkhane", 
            "long": "39.48139"
        }
    ], 
    "68": [
        {
            "lat": "38.93925", 
            "name": "&#350;erefliko&#231;hisar", 
            "long": "33.5386"
        }, 
        {
            "lat": "39.57715", 
            "name": "Polatl&#305;", 
            "long": "32.14132"
        }, 
        {
            "lat": "39.92083", 
            "name": "Elmada&#287;", 
            "long": "33.23083"
        }, 
        {
            "lat": "39.91987", 
            "name": "Ankara", 
            "long": "32.85427"
        }, 
        {
            "lat": "39.96833", 
            "name": "Batikent", 
            "long": "32.73083"
        }, 
        {
            "lat": "40.18593", 
            "name": "Nall&#305;han", 
            "long": "31.35179"
        }, 
        {
            "lat": "40.46972", 
            "name": "K&#305;z&#305;lcahamam", 
            "long": "32.65056"
        }, 
        {
            "lat": "40.23167", 
            "name": "Kazan", 
            "long": "32.68389"
        }, 
        {
            "lat": "40.23861", 
            "name": "&#199;ubuk", 
            "long": "33.03222"
        }, 
        {
            "lat": "40.1675", 
            "name": "Beypazar&#305;", 
            "long": "31.92111"
        }, 
        {
            "lat": "39.9179", 
            "name": "&#199;ankaya", 
            "long": "32.86268"
        }
    ], 
    "83": [
        {
            "lat": "37.00972", 
            "name": "Nizip", 
            "long": "37.79417"
        }, 
        {
            "lat": "37.05944", 
            "name": "Gaziantep", 
            "long": "37.3825"
        }
    ], 
    "80": [
        {
            "lat": "37.51393", 
            "name": "&#350;&#305;rnak", 
            "long": "42.45432"
        }, 
        {
            "lat": "37.24379", 
            "name": "Silopi", 
            "long": "42.46345"
        }, 
        {
            "lat": "37.33481", 
            "name": "&#304;dil", 
            "long": "41.88944"
        }, 
        {
            "lat": "37.33024", 
            "name": "Cizre", 
            "long": "42.18484"
        }
    ], 
    "81": [
        {
            "lat": "37.45517", 
            "name": "Kozan", 
            "long": "35.81573"
        }, 
        {
            "lat": "37.37389", 
            "name": "Kadirli", 
            "long": "36.09611"
        }, 
        {
            "lat": "37.02472", 
            "name": "Ceyhan", 
            "long": "35.8175"
        }, 
        {
            "lat": "37.19724", 
            "name": "Bah&#231;e", 
            "long": "36.57658"
        }, 
        {
            "lat": "37.00167", 
            "name": "Adana", 
            "long": "35.32889"
        }
    ], 
    "86": [
        {
            "lat": "41.10871", 
            "name": "Ardahan", 
            "long": "42.70222"
        }
    ], 
    "53": [
        {
            "lat": "41.02083", 
            "name": "Rize", 
            "long": "40.52194"
        }, 
        {
            "lat": "41.09228", 
            "name": "&#199;ayeli", 
            "long": "40.72924"
        }, 
        {
            "lat": "41.19111", 
            "name": "Arde&#351;en", 
            "long": "40.9875"
        }
    ], 
    "84": [
        {
            "lat": "40.33806", 
            "name": "Sar&#305;kam&#305;&#351;", 
            "long": "42.57306"
        }, 
        {
            "lat": "40.60199", 
            "name": "Kars", 
            "long": "43.09495"
        }, 
        {
            "lat": "40.15669", 
            "name": "Ka&#287;&#305;zman", 
            "long": "43.13424"
        }
    ], 
    "04": [
        {
            "lat": "39.23361", 
            "name": "Patnos", 
            "long": "42.86344"
        }, 
        {
            "lat": "39.71944", 
            "name": "A&#287;r&#305;", 
            "long": "43.05139"
        }, 
        {
            "lat": "39.80333", 
            "name": "Ele&#351;kirt", 
            "long": "42.67361"
        }, 
        {
            "lat": "39.54694", 
            "name": "Do&#287;ubayaz&#305;t", 
            "long": "44.08417"
        }, 
        {
            "lat": "39.54056", 
            "name": "Diyadin", 
            "long": "43.67135"
        }
    ], 
    "24": [
        {
            "lat": "39.71011", 
            "name": "Cimin", 
            "long": "39.70213"
        }, 
        {
            "lat": "39.75222", 
            "name": "Erzincan", 
            "long": "39.49278"
        }
    ], 
    "03": [
        {
            "lat": "38.46472", 
            "name": "Sand&#305;kl&#305;", 
            "long": "30.26946"
        }, 
        {
            "lat": "39.01972", 
            "name": "Emirda&#287;", 
            "long": "31.15"
        }, 
        {
            "lat": "38.065", 
            "name": "Dinar", 
            "long": "30.16557"
        }, 
        {
            "lat": "38.59167", 
            "name": "&#199;ay", 
            "long": "31.02861"
        }, 
        {
            "lat": "38.71111", 
            "name": "Bolvadin", 
            "long": "31.04861"
        }, 
        {
            "lat": "38.75667", 
            "name": "Afyonkarahisar", 
            "long": "30.54333"
        }
    ], 
    "26": [
        {
            "lat": "39.77667", 
            "name": "Eski&#351;ehir", 
            "long": "30.52056"
        }
    ], 
    "20": [
        {
            "lat": "37.92448", 
            "name": "Sarayk&#246;y", 
            "long": "28.92516"
        }, 
        {
            "lat": "37.58105", 
            "name": "Serinhisar", 
            "long": "29.26639"
        }, 
        {
            "lat": "37.77417", 
            "name": "Denizli", 
            "long": "29.0875"
        }
    ], 
    "07": [
        {
            "lat": "36.5017", 
            "name": "Tekirova", 
            "long": "30.52723"
        }, 
        {
            "lat": "36.91694", 
            "name": "Serik", 
            "long": "31.09889"
        }, 
        {
            "lat": "36.78667", 
            "name": "Manavgat", 
            "long": "31.44306"
        }, 
        {
            "lat": "36.49463", 
            "name": "Mahmutlar", 
            "long": "32.09085"
        }, 
        {
            "lat": "36.32573", 
            "name": "Beykonak", 
            "long": "30.30302"
        }, 
        {
            "lat": "37.06498", 
            "name": "Korkuteli", 
            "long": "30.19565"
        }, 
        {
            "lat": "36.59778", 
            "name": "Kemer", 
            "long": "30.56056"
        }, 
        {
            "lat": "36.26942", 
            "name": "Gazipa&#351;a", 
            "long": "32.31792"
        }, 
        {
            "lat": "36.73583", 
            "name": "Elmal&#305;", 
            "long": "29.91775"
        }, 
        {
            "lat": "36.86278", 
            "name": "Belek", 
            "long": "31.05556"
        }, 
        {
            "lat": "36.90812", 
            "name": "Antalya", 
            "long": "30.69556"
        }, 
        {
            "lat": "36.54375", 
            "name": "Alanya", 
            "long": "31.99982"
        }
    ], 
    "48": [
        {
            "lat": "37.34025", 
            "name": "Yata&#287;an", 
            "long": "28.14279"
        }, 
        {
            "lat": "36.82944", 
            "name": "Ortaca", 
            "long": "28.77083"
        }, 
        {
            "lat": "37.21807", 
            "name": "Mu&#287;la", 
            "long": "28.3665"
        }, 
        {
            "lat": "37.31639", 
            "name": "Milas", 
            "long": "27.78389"
        }, 
        {
            "lat": "36.855", 
            "name": "Marmaris", 
            "long": "28.27417"
        }, 
        {
            "lat": "36.62167", 
            "name": "Fethiye", 
            "long": "29.11639"
        }, 
        {
            "lat": "37.03833", 
            "name": "Bodrum", 
            "long": "27.42917"
        }, 
        {
            "lat": "36.76591", 
            "name": "Dalaman", 
            "long": "28.8028"
        }, 
        {
            "lat": "37.01667", 
            "name": "Turgutreis", 
            "long": "27.26667"
        }, 
        {
            "lat": "36.71549", 
            "name": "Sarigerme", 
            "long": "28.70436"
        }
    ], 
    "49": [
        {
            "lat": "39.17321", 
            "name": "Varto", 
            "long": "41.45593"
        }, 
        {
            "lat": "38.74525", 
            "name": "Mu&#351;", 
            "long": "41.50693"
        }, 
        {
            "lat": "39.14265", 
            "name": "Malazgirt", 
            "long": "42.54008"
        }, 
        {
            "lat": "39.09291", 
            "name": "Bulan&#305;k", 
            "long": "42.27031"
        }
    ], 
    "46": [
        {
            "lat": "37.48685", 
            "name": "Pazarc&#305;k", 
            "long": "37.29961"
        }, 
        {
            "lat": "37.5847", 
            "name": "Kahramanmara&#351;", 
            "long": "36.92641"
        }, 
        {
            "lat": "38.02096", 
            "name": "G&#246;ksun", 
            "long": "36.4973"
        }, 
        {
            "lat": "38.20591", 
            "name": "Elbistan", 
            "long": "37.1983"
        }, 
        {
            "lat": "37.74959", 
            "name": "&#199;a&#287;layancerit", 
            "long": "37.29622"
        }, 
        {
            "lat": "38.24769", 
            "name": "Af&#351;in", 
            "long": "36.91399"
        }
    ], 
    "44": [
        {
            "lat": "38.35018", 
            "name": "Malatya", 
            "long": "38.31667"
        }, 
        {
            "lat": "38.54583", 
            "name": "Darende", 
            "long": "37.50583"
        }
    ], 
    "09": [
        {
            "lat": "37.38496", 
            "name": "Didim", 
            "long": "27.25643"
        }, 
        {
            "lat": "37.7482", 
            "name": "S&#246;ke", 
            "long": "27.40614"
        }, 
        {
            "lat": "37.91631", 
            "name": "Nazilli", 
            "long": "28.32225"
        }, 
        {
            "lat": "37.85562", 
            "name": "Ku&#351;adas&#305;", 
            "long": "27.2566"
        }, 
        {
            "lat": "37.61167", 
            "name": "&#199;ine", 
            "long": "28.06139"
        }, 
        {
            "lat": "37.84501", 
            "name": "Ayd&#305;n", 
            "long": "27.83963"
        }
    ], 
    "28": [
        {
            "lat": "41.00694", 
            "name": "Tirebolu", 
            "long": "38.81389"
        }, 
        {
            "lat": "40.28833", 
            "name": "&#350;ebinkarahisar", 
            "long": "38.42361"
        }, 
        {
            "lat": "41.03083", 
            "name": "G&#246;rele", 
            "long": "39.00306"
        }, 
        {
            "lat": "40.91698", 
            "name": "Giresun", 
            "long": "38.38741"
        }, 
        {
            "lat": "40.93717", 
            "name": "Bulancak", 
            "long": "38.22907"
        }, 
        {
            "lat": "40.94794", 
            "name": "Espiye", 
            "long": "38.71148"
        }
    ], 
    "43": [
        {
            "lat": "39.54237", 
            "name": "Tav&#351;anl&#305;", 
            "long": "29.49866"
        }, 
        {
            "lat": "39.0882", 
            "name": "Simav", 
            "long": "28.97767"
        }, 
        {
            "lat": "39.42417", 
            "name": "K&#252;tahya", 
            "long": "29.98333"
        }, 
        {
            "lat": "39.04167", 
            "name": "Gediz", 
            "long": "29.41"
        }, 
        {
            "lat": "39.343", 
            "name": "Emet", 
            "long": "29.25847"
        }
    ], 
    "40": [
        {
            "lat": "39.06147", 
            "name": "Mucur", 
            "long": "34.38286"
        }, 
        {
            "lat": "39.14583", 
            "name": "K&#305;r&#351;ehir", 
            "long": "34.16389"
        }, 
        {
            "lat": "39.3575", 
            "name": "Kaman", 
            "long": "33.72389"
        }
    ], 
    "41": [
        {
            "lat": "40.76704", 
            "name": "K&#246;rfez", 
            "long": "29.78275"
        }, 
        {
            "lat": "40.69144", 
            "name": "Karam&#252;rsel", 
            "long": "29.61568"
        }, 
        {
            "lat": "40.76694", 
            "name": "&#304;zmit", 
            "long": "29.91694"
        }, 
        {
            "lat": "40.70323", 
            "name": "Geulzuk", 
            "long": "29.87216"
        }, 
        {
            "lat": "40.80276", 
            "name": "Gebze", 
            "long": "29.43068"
        }
    ], 
    "82": [
        {
            "lat": "40.81164", 
            "name": "&#199;erke&#351;", 
            "long": "32.89358"
        }, 
        {
            "lat": "40.59995", 
            "name": "Khanjarah", 
            "long": "33.6153"
        }
    ], 
    "14": [
        {
            "lat": "40.80083", 
            "name": "Gerede", 
            "long": "32.19694"
        }, 
        {
            "lat": "40.73583", 
            "name": "Bolu", 
            "long": "31.60611"
        }
    ], 
    "78": [
        {
            "lat": "37.18111", 
            "name": "Karaman", 
            "long": "33.215"
        }, 
        {
            "lat": "36.64043", 
            "name": "Ermenek", 
            "long": "32.89179"
        }
    ], 
    "05": [
        {
            "lat": "40.75972", 
            "name": "Ta&#351;ova", 
            "long": "36.3225"
        }, 
        {
            "lat": "40.83129", 
            "name": "Suluova", 
            "long": "35.64788"
        }, 
        {
            "lat": "40.87333", 
            "name": "Merzifon", 
            "long": "35.46306"
        }, 
        {
            "lat": "40.65333", 
            "name": "Amasya", 
            "long": "35.83306"
        }
    ], 
    "87": [
        {
            "lat": "41.63583", 
            "name": "Bart&#305;n", 
            "long": "32.3375"
        }
    ], 
    "02": [
        {
            "lat": "37.78552", 
            "name": "K&#226;hta", 
            "long": "38.6237"
        }, 
        {
            "lat": "37.78361", 
            "name": "G&#246;lba&#351;&#305;", 
            "long": "37.63667"
        }, 
        {
            "lat": "37.69278", 
            "name": "Besni", 
            "long": "37.86111"
        }, 
        {
            "lat": "37.76441", 
            "name": "Ad&#305;yaman", 
            "long": "38.27629"
        }
    ], 
    "19": [
        {
            "lat": "40.1675", 
            "name": "Sungurlu", 
            "long": "34.37389"
        }, 
        {
            "lat": "40.97818", 
            "name": "Osmanc&#305;k", 
            "long": "34.8047"
        }, 
        {
            "lat": "40.73528", 
            "name": "&#304;skilip", 
            "long": "34.47389"
        }, 
        {
            "lat": "40.54889", 
            "name": "&#199;orum", 
            "long": "34.95333"
        }, 
        {
            "lat": "40.16833", 
            "name": "Alaca", 
            "long": "34.8425"
        }
    ], 
    "08": [
        {
            "lat": "41.39046", 
            "name": "Hopa", 
            "long": "41.41966"
        }, 
        {
            "lat": "41.18161", 
            "name": "Artvin", 
            "long": "41.82172"
        }, 
        {
            "lat": "41.35121", 
            "name": "Arhavi", 
            "long": "41.30456"
        }
    ], 
    "25": [
        {
            "lat": "39.98031", 
            "name": "Pasinler", 
            "long": "41.67635"
        }, 
        {
            "lat": "39.34919", 
            "name": "Kara&#231;oban", 
            "long": "42.11239"
        }, 
        {
            "lat": "39.3606", 
            "name": "H&#305;n&#305;s", 
            "long": "41.70222"
        }, 
        {
            "lat": "39.90861", 
            "name": "Erzurum", 
            "long": "41.27694"
        }, 
        {
            "lat": "39.92083", 
            "name": "A&#351;kale", 
            "long": "40.695"
        }, 
        {
            "lat": "40.53945", 
            "name": "Oltu", 
            "long": "41.98722"
        }, 
        {
            "lat": "40.03885", 
            "name": "Horasan", 
            "long": "42.16366"
        }
    ], 
    "39": [
        {
            "lat": "41.40385", 
            "name": "Luleburgaz", 
            "long": "27.35918"
        }, 
        {
            "lat": "41.73508", 
            "name": "K&#305;rklareli", 
            "long": "27.22521"
        }, 
        {
            "lat": "41.4325", 
            "name": "Babaeski", 
            "long": "27.09306"
        }
    ], 
    "77": [
        {
            "lat": "40.25889", 
            "name": "Bayburt", 
            "long": "40.22778"
        }
    ], 
    "76": [
        {
            "lat": "38.19383", 
            "name": "Kozluk", 
            "long": "41.48853"
        }, 
        {
            "lat": "37.88738", 
            "name": "Batman", 
            "long": "41.13221"
        }
    ], 
    "75": [
        {
            "lat": "38.73728", 
            "name": "Ortak&#246;y", 
            "long": "34.03866"
        }, 
        {
            "lat": "38.37255", 
            "name": "Aksaray", 
            "long": "34.02537"
        }
    ], 
    "12": [
        {
            "lat": "38.96337", 
            "name": "Solhan", 
            "long": "41.02931"
        }, 
        {
            "lat": "38.75071", 
            "name": "Gen&#231;", 
            "long": "40.56035"
        }, 
        {
            "lat": "38.88472", 
            "name": "Bing&#246;l", 
            "long": "40.49389"
        }
    ], 
    "73": [
        {
            "lat": "37.96583", 
            "name": "Ni&#287;de", 
            "long": "34.67935"
        }, 
        {
            "lat": "37.89056", 
            "name": "Bor", 
            "long": "34.55889"
        }
    ], 
    "72": [
        {
            "lat": "37.34049", 
            "name": "Ye&#351;illi", 
            "long": "40.82558"
        }, 
        {
            "lat": "37.0778", 
            "name": "Nusaybin", 
            "long": "41.2178"
        }, 
        {
            "lat": "37.4247", 
            "name": "Midyat", 
            "long": "41.33933"
        }, 
        {
            "lat": "37.31309", 
            "name": "Mardin", 
            "long": "40.74357"
        }, 
        {
            "lat": "37.19319", 
            "name": "K&#305;z&#305;ltepe", 
            "long": "40.58799"
        }, 
        {
            "lat": "37.54545", 
            "name": "Darge&#231;it", 
            "long": "41.71966"
        }
    ], 
    "71": [
        {
            "lat": "37.41926", 
            "name": "Seydi&#351;ehir", 
            "long": "31.84527"
        }, 
        {
            "lat": "39.09513", 
            "name": "Kulu", 
            "long": "33.07989"
        }, 
        {
            "lat": "37.87135", 
            "name": "Konya", 
            "long": "32.48464"
        }, 
        {
            "lat": "37.71596", 
            "name": "Karap&#305;nar", 
            "long": "33.55064"
        }, 
        {
            "lat": "38.23972", 
            "name": "Kad&#305;nhan&#305;", 
            "long": "32.21139"
        }, 
        {
            "lat": "36.98776", 
            "name": "Hadim", 
            "long": "32.45674"
        }, 
        {
            "lat": "37.51333", 
            "name": "Ere&#287;li", 
            "long": "34.04672"
        }, 
        {
            "lat": "37.5732", 
            "name": "&#199;umra", 
            "long": "32.77446"
        }, 
        {
            "lat": "37.67735", 
            "name": "Bey&#351;ehir", 
            "long": "31.72458"
        }, 
        {
            "lat": "38.3575", 
            "name": "Ak&#351;ehir", 
            "long": "31.41639"
        }
    ], 
    "70": [
        {
            "lat": "37.57362", 
            "name": "Y&#252;ksekova", 
            "long": "44.28716"
        }, 
        {
            "lat": "37.30514", 
            "name": "&#350;emdinli", 
            "long": "44.5742"
        }, 
        {
            "lat": "37.57444", 
            "name": "Hakkari", 
            "long": "43.74083"
        }
    ], 
    "91": [
        {
            "lat": "37.07417", 
            "name": "Osmaniye", 
            "long": "36.24778"
        }
    ], 
    "90": [
        {
            "lat": "36.71611", 
            "name": "Kilis", 
            "long": "37.115"
        }
    ], 
    "93": [
        {
            "lat": "40.83889", 
            "name": "D&#252;zce", 
            "long": "31.16389"
        }, 
        {
            "lat": "41.08663", 
            "name": "Ak&#231;akoca", 
            "long": "31.11623"
        }
    ], 
    "92": [
        {
            "lat": "40.65501", 
            "name": "Yalova", 
            "long": "29.27693"
        }
    ], 
    "79": [
        {
            "lat": "39.84528", 
            "name": "K&#305;r&#305;kkale", 
            "long": "33.50639"
        }, 
        {
            "lat": "39.67306", 
            "name": "Keskin", 
            "long": "33.61361"
        }
    ], 
    "21": [
        {
            "lat": "38.14194", 
            "name": "Silvan", 
            "long": "41.00806"
        }, 
        {
            "lat": "38.45917", 
            "name": "Lice", 
            "long": "40.6475"
        }, 
        {
            "lat": "38.49722", 
            "name": "Kulp", 
            "long": "41.01222"
        }, 
        {
            "lat": "38.26533", 
            "name": "Ergani", 
            "long": "39.76212"
        }, 
        {
            "lat": "37.91583", 
            "name": "Diyarbak&#305;r", 
            "long": "40.21889"
        }, 
        {
            "lat": "38.13613", 
            "name": "&#199;ermik", 
            "long": "39.44929"
        }, 
        {
            "lat": "37.84861", 
            "name": "Bismil", 
            "long": "40.66583"
        }
    ], 
    "11": [
        {
            "lat": "39.90778", 
            "name": "Boz&#252;y&#252;k", 
            "long": "30.03667"
        }, 
        {
            "lat": "40.35722", 
            "name": "Osmaneli", 
            "long": "30.01417"
        }, 
        {
            "lat": "40.14192", 
            "name": "Bilecik", 
            "long": "29.97932"
        }
    ], 
    "10": [
        {
            "lat": "39.91361", 
            "name": "Susurluk", 
            "long": "28.15778"
        }, 
        {
            "lat": "39.59611", 
            "name": "Edremit", 
            "long": "27.02444"
        }, 
        {
            "lat": "39.58596", 
            "name": "Dursunbey", 
            "long": "28.62568"
        }, 
        {
            "lat": "39.50041", 
            "name": "Burhaniye", 
            "long": "26.97269"
        }, 
        {
            "lat": "39.3925", 
            "name": "Bigadi&#231;", 
            "long": "28.13111"
        }, 
        {
            "lat": "39.64917", 
            "name": "Bal&#305;kesir", 
            "long": "27.88611"
        }, 
        {
            "lat": "39.31905", 
            "name": "Ayval&#305;k", 
            "long": "26.6954"
        }, 
        {
            "lat": "40.1049", 
            "name": "G&#246;nen", 
            "long": "27.65399"
        }, 
        {
            "lat": "40.3996", 
            "name": "Erdek", 
            "long": "27.79348"
        }, 
        {
            "lat": "40.35222", 
            "name": "Band&#305;rma", 
            "long": "27.97667"
        }
    ], 
    "13": [
        {
            "lat": "38.50667", 
            "name": "Tatvan", 
            "long": "42.28167"
        }, 
        {
            "lat": "38.22572", 
            "name": "Hizan", 
            "long": "42.42776"
        }, 
        {
            "lat": "38.57739", 
            "name": "G&#252;roymak", 
            "long": "42.02811"
        }, 
        {
            "lat": "38.40115", 
            "name": "Bitlis", 
            "long": "42.10784"
        }, 
        {
            "lat": "38.75178", 
            "name": "Ahlat", 
            "long": "42.48135"
        }, 
        {
            "lat": "38.80389", 
            "name": "Adilcevaz", 
            "long": "42.73422"
        }
    ], 
    "38": [
        {
            "lat": "38.10228", 
            "name": "Yahyal&#305;", 
            "long": "35.35704"
        }, 
        {
            "lat": "38.6908", 
            "name": "Talas", 
            "long": "35.5538"
        }, 
        {
            "lat": "38.73222", 
            "name": "Kayseri", 
            "long": "35.48528"
        }, 
        {
            "lat": "38.64631", 
            "name": "Hac&#305;lar", 
            "long": "35.44937"
        }, 
        {
            "lat": "38.39056", 
            "name": "Develi", 
            "long": "35.49222"
        }
    ], 
    "15": [
        {
            "lat": "37.72028", 
            "name": "Burdur", 
            "long": "30.29083"
        }, 
        {
            "lat": "37.45917", 
            "name": "Bucak", 
            "long": "30.595"
        }
    ], 
    "58": [
        {
            "lat": "39.74833", 
            "name": "Sivas", 
            "long": "37.01611"
        }, 
        {
            "lat": "39.35186", 
            "name": "&#350;ark&#305;&#351;la", 
            "long": "36.40976"
        }, 
        {
            "lat": "39.18342", 
            "name": "Gemerek", 
            "long": "36.07189"
        }, 
        {
            "lat": "40.16444", 
            "name": "Su&#351;ehri", 
            "long": "38.08667"
        }
    ], 
    "17": [
        {
            "lat": "39.78561", 
            "name": "Ezine", 
            "long": "26.34083"
        }, 
        {
            "lat": "40.41028", 
            "name": "Gelibolu", 
            "long": "26.67083"
        }, 
        {
            "lat": "40.14556", 
            "name": "&#199;anakkale", 
            "long": "26.40639"
        }, 
        {
            "lat": "40.03328", 
            "name": "&#199;an", 
            "long": "27.05236"
        }, 
        {
            "lat": "40.22806", 
            "name": "Biga", 
            "long": "27.24222"
        }
    ], 
    "16": [
        {
            "lat": "40.26444", 
            "name": "Yeni&#351;ehir", 
            "long": "29.65306"
        }, 
        {
            "lat": "40.48917", 
            "name": "Orhangazi", 
            "long": "29.30889"
        }, 
        {
            "lat": "40.03815", 
            "name": "Mustafakemalpa&#351;a", 
            "long": "28.40866"
        }, 
        {
            "lat": "40.37528", 
            "name": "Mudanya", 
            "long": "28.88222"
        }, 
        {
            "lat": "40.19828", 
            "name": "Kestel", 
            "long": "29.21237"
        }, 
        {
            "lat": "40.21323", 
            "name": "Karacabey", 
            "long": "28.3612"
        }, 
        {
            "lat": "40.42861", 
            "name": "&#304;znik", 
            "long": "29.72111"
        }, 
        {
            "lat": "40.07806", 
            "name": "Inegol", 
            "long": "29.51333"
        }, 
        {
            "lat": "40.21876", 
            "name": "G&#252;rsu", 
            "long": "29.19487"
        }, 
        {
            "lat": "40.43094", 
            "name": "Gemlik", 
            "long": "29.15969"
        }, 
        {
            "lat": "40.19266", 
            "name": "Bursa", 
            "long": "29.08403"
        }
    ], 
    "33": [
        {
            "lat": "38.29556", 
            "name": "Yalva&#231;", 
            "long": "31.17778"
        }, 
        {
            "lat": "38.10444", 
            "name": "Senirkent", 
            "long": "30.54861"
        }, 
        {
            "lat": "38.07944", 
            "name": "&#350;ark&#238;karaa&#287;a&#231;", 
            "long": "31.36639"
        }, 
        {
            "lat": "37.87462", 
            "name": "E&#287;irdir", 
            "long": "30.85042"
        }
    ], 
    "32": [
        {
            "lat": "36.91876", 
            "name": "Tarsus", 
            "long": "34.8784"
        }, 
        {
            "lat": "36.37778", 
            "name": "Silifke", 
            "long": "33.93444"
        }, 
        {
            "lat": "36.64389", 
            "name": "Mut", 
            "long": "33.43885"
        }, 
        {
            "lat": "36.79526", 
            "name": "Mercin", 
            "long": "34.61792"
        }, 
        {
            "lat": "36.60498", 
            "name": "Erdemli", 
            "long": "34.30836"
        }, 
        {
            "lat": "36.1082", 
            "name": "Bozyaz&#305;", 
            "long": "32.96113"
        }, 
        {
            "lat": "36.07508", 
            "name": "Anamur", 
            "long": "32.83691"
        }
    ], 
    "31": [
        {
            "lat": "36.95348", 
            "name": "Erzin", 
            "long": "36.19839"
        }, 
        {
            "lat": "36.36139", 
            "name": "Serinyol", 
            "long": "36.21361"
        }, 
        {
            "lat": "36.26791", 
            "name": "Reyhanl&#305;", 
            "long": "36.56747"
        }, 
        {
            "lat": "36.49939", 
            "name": "K&#305;r&#305;khan", 
            "long": "36.35755"
        }, 
        {
            "lat": "36.86158", 
            "name": "D&#246;rtyol", 
            "long": "36.22885"
        }, 
        {
            "lat": "36.48866", 
            "name": "Belen", 
            "long": "36.19489"
        }, 
        {
            "lat": "36.20655", 
            "name": "Antakya", 
            "long": "36.15722"
        }, 
        {
            "lat": "36.64951", 
            "name": "Denizciler", 
            "long": "36.22956"
        }
    ], 
    "23": [
        {
            "lat": "38.72139", 
            "name": "Kovanc&#305;lar", 
            "long": "39.86806"
        }, 
        {
            "lat": "38.95583", 
            "name": "Karako&#231;an", 
            "long": "40.03861"
        }, 
        {
            "lat": "38.67431", 
            "name": "Elaz&#305;&#287;", 
            "long": "39.22321"
        }, 
        {
            "lat": "38.56791", 
            "name": "Baskil", 
            "long": "38.82382"
        }
    ], 
    "37": [
        {
            "lat": "41.01545", 
            "name": "Tosya", 
            "long": "34.04013"
        }, 
        {
            "lat": "41.5098", 
            "name": "Ta&#351;k&#246;pr&#252;", 
            "long": "34.21414"
        }, 
        {
            "lat": "41.37805", 
            "name": "Kastamonu", 
            "long": "33.77528"
        }
    ], 
    "50": [
        {
            "lat": "38.6296", 
            "name": "Urgub", 
            "long": "34.91199"
        }, 
        {
            "lat": "38.625", 
            "name": "Nev&#351;ehir", 
            "long": "34.71222"
        }
    ], 
    "35": [
        {
            "lat": "38.32292", 
            "name": "Urla", 
            "long": "26.76403"
        }, 
        {
            "lat": "38.1519", 
            "name": "Torbal&#305;", 
            "long": "27.36223"
        }, 
        {
            "lat": "38.08877", 
            "name": "Tire", 
            "long": "27.73508"
        }, 
        {
            "lat": "37.95137", 
            "name": "Sel&#231;uk", 
            "long": "27.36849"
        }, 
        {
            "lat": "38.1975", 
            "name": "Seferhisar", 
            "long": "26.83881"
        }, 
        {
            "lat": "38.2278", 
            "name": "Hypaepa", 
            "long": "27.96955"
        }, 
        {
            "lat": "38.60754", 
            "name": "Menemen", 
            "long": "27.06938"
        }, 
        {
            "lat": "38.42621", 
            "name": "Kemalpa&#351;a", 
            "long": "27.41731"
        }, 
        {
            "lat": "38.41273", 
            "name": "&#304;zmir", 
            "long": "27.13838"
        }, 
        {
            "lat": "38.6703", 
            "name": "Fo&#231;a", 
            "long": "26.75656"
        }, 
        {
            "lat": "38.24963", 
            "name": "Menderes", 
            "long": "27.13429"
        }, 
        {
            "lat": "38.32614", 
            "name": "&#199;e&#351;me", 
            "long": "26.30574"
        }, 
        {
            "lat": "39.12074", 
            "name": "Bergama", 
            "long": "27.18052"
        }, 
        {
            "lat": "38.21741", 
            "name": "Bay&#305;nd&#305;r", 
            "long": "27.64744"
        }, 
        {
            "lat": "38.79975", 
            "name": "Alia&#287;a", 
            "long": "26.97203"
        }, 
        {
            "lat": "38.37396", 
            "name": "Karaba&#287;lar", 
            "long": "27.1352"
        }
    ], 
    "34": [
        {
            "lat": "40.99441", 
            "name": "Zeytinburnu", 
            "long": "28.90417"
        }, 
        {
            "lat": "40.98894", 
            "name": "Yakuplu", 
            "long": "28.67582"
        }, 
        {
            "lat": "41.02252", 
            "name": "&#220;sk&#252;dar", 
            "long": "29.02369"
        }, 
        {
            "lat": "41.01643", 
            "name": "Umraniye", 
            "long": "29.12476"
        }, 
        {
            "lat": "41.02931", 
            "name": "Tepecik", 
            "long": "28.54978"
        }, 
        {
            "lat": "41.06046", 
            "name": "&#350;i&#351;li", 
            "long": "28.98717"
        }, 
        {
            "lat": "41.07393", 
            "name": "Silivri", 
            "long": "28.24644"
        }, 
        {
            "lat": "41.0179", 
            "name": "Mimarsinan", 
            "long": "28.56176"
        }, 
        {
            "lat": "40.93567", 
            "name": "Maltepe", 
            "long": "29.15507"
        }, 
        {
            "lat": "41.09258", 
            "name": "Kavakl&#305;", 
            "long": "28.33172"
        }, 
        {
            "lat": "41.01384", 
            "name": "&#304;stanbul", 
            "long": "28.94966"
        }, 
        {
            "lat": "40.99256", 
            "name": "G&#252;rp&#305;nar", 
            "long": "28.61428"
        }, 
        {
            "lat": "41.02697", 
            "name": "Esenyurt", 
            "long": "28.67732"
        }, 
        {
            "lat": "41.0435", 
            "name": "Esenler", 
            "long": "28.87619"
        }, 
        {
            "lat": "41.01766", 
            "name": "Emin&#246;n&#252;", 
            "long": "28.97438"
        }, 
        {
            "lat": "41.14324", 
            "name": "&#199;atalca", 
            "long": "28.46154"
        }, 
        {
            "lat": "41.03903", 
            "name": "Ba&#287;c&#305;lar", 
            "long": "28.85671"
        }, 
        {
            "lat": "41.01295", 
            "name": "merter keresteciler", 
            "long": "28.88593"
        }, 
        {
            "lat": "41.00711", 
            "name": "g&#252;ng&#246;ren merter", 
            "long": "28.88795"
        }, 
        {
            "lat": "40.9833", 
            "name": "Ata&#351;ehir", 
            "long": "29.1167"
        }, 
        {
            "lat": "41.09307", 
            "name": "Ba&#351;ak&#351;ehir", 
            "long": "28.80203"
        }, 
        {
            "lat": "40.982", 
            "name": "Beylikd&#252;z&#252;", 
            "long": "28.6399"
        }, 
        {
            "lat": "41.02072", 
            "name": "B&#252;y&#252;k&#231;ekmece", 
            "long": "28.58502"
        }, 
        {
            "lat": "41.00231", 
            "name": "Bah&#231;elievler", 
            "long": "28.8598"
        }, 
        {
            "lat": "41.10652", 
            "name": "Sultangazi", 
            "long": "28.86847"
        }, 
        {
            "lat": "40.96072", 
            "name": "Sultanbeyli", 
            "long": "29.27067"
        }, 
        {
            "lat": "41.00244", 
            "name": "Sancaktepe", 
            "long": "29.23187"
        }
    ], 
    "55": [
        {
            "lat": "41.14361", 
            "name": "Vezirk&#246;pr&#252;", 
            "long": "35.45472"
        }, 
        {
            "lat": "41.20917", 
            "name": "Terme", 
            "long": "36.97389"
        }, 
        {
            "lat": "41.21167", 
            "name": "Tekkek&#246;y", 
            "long": "36.46"
        }, 
        {
            "lat": "41.28667", 
            "name": "Samsun", 
            "long": "36.33"
        }, 
        {
            "lat": "40.97056", 
            "name": "Havza", 
            "long": "35.66222"
        }, 
        {
            "lat": "41.19889", 
            "name": "&#199;ar&#351;amba", 
            "long": "36.72194"
        }, 
        {
            "lat": "41.56778", 
            "name": "Bafra", 
            "long": "35.90694"
        }
    ], 
    "89": [
        {
            "lat": "41.25083", 
            "name": "Safranbolu", 
            "long": "32.69417"
        }, 
        {
            "lat": "41.20488", 
            "name": "Karab&#252;k", 
            "long": "32.62768"
        }
    ], 
    "74": [
        {
            "lat": "37.93262", 
            "name": "Siirt", 
            "long": "41.94025"
        }, 
        {
            "lat": "37.92717", 
            "name": "Kurtalan", 
            "long": "41.70282"
        }
    ], 
    "88": [
        {
            "lat": "39.92371", 
            "name": "Isparta", 
            "long": "44.045"
        }
    ], 
    "54": [
        {
            "lat": "40.69141", 
            "name": "Sapanca", 
            "long": "30.26738"
        }, 
        {
            "lat": "41.05336", 
            "name": "Kocaali", 
            "long": "30.85278"
        }, 
        {
            "lat": "41.07096", 
            "name": "Karasu", 
            "long": "30.78543"
        }, 
        {
            "lat": "40.79944", 
            "name": "Hendek", 
            "long": "30.74806"
        }, 
        {
            "lat": "40.5075", 
            "name": "Geyve", 
            "long": "30.2925"
        }, 
        {
            "lat": "40.94082", 
            "name": "Ferizli", 
            "long": "30.48583"
        }, 
        {
            "lat": "40.685", 
            "name": "Akyaz&#305;", 
            "long": "30.62222"
        }, 
        {
            "lat": "40.78056", 
            "name": "Adapazar&#305;", 
            "long": "30.40333"
        }
    ], 
    "85": [
        {
            "lat": "41.45139", 
            "name": "Zonguldak", 
            "long": "31.79305"
        }, 
        {
            "lat": "41.28261", 
            "name": "Ere&#287;li", 
            "long": "31.41806"
        }, 
        {
            "lat": "41.21917", 
            "name": "Devrek", 
            "long": "31.95583"
        }, 
        {
            "lat": "41.42639", 
            "name": "&#199;aycuma", 
            "long": "32.07556"
        }, 
        {
            "lat": "41.1694", 
            "name": "Alapl&#305;", 
            "long": "31.37917"
        }
    ], 
    "57": [
        {
            "lat": "42.02683", 
            "name": "Sinop", 
            "long": "35.16253"
        }, 
        {
            "lat": "41.46889", 
            "name": "Boyabat", 
            "long": "34.76667"
        }
    ]
}