{
    "02": [
        {
            "lat": "39.51075", 
            "name": "Balkanabat", 
            "long": "54.36713"
        }, 
        {
            "lat": "39.20611", 
            "name": "Gumdag", 
            "long": "54.59056"
        }, 
        {
            "lat": "39.24463", 
            "name": "Gazanjyk", 
            "long": "55.51536"
        }, 
        {
            "lat": "40.02216", 
            "name": "T&#252;rkmenba&#351;y", 
            "long": "52.95517"
        }
    ], 
    "03": [
        {
            "lat": "41.83333", 
            "name": "Yylanly", 
            "long": "59.65"
        }, 
        {
            "lat": "41.65041", 
            "name": "Tagta", 
            "long": "59.9164"
        }, 
        {
            "lat": "42.32773", 
            "name": "K&#246;ne&#252;rgench", 
            "long": "59.15442"
        }, 
        {
            "lat": "42.12824", 
            "name": "Boldumsaz", 
            "long": "59.67101"
        }, 
        {
            "lat": "41.83625", 
            "name": "Da&#351;oguz", 
            "long": "59.96661"
        }
    ], 
    "01": [
        {
            "lat": "37.34821", 
            "name": "Kaka", 
            "long": "59.61431"
        }, 
        {
            "lat": "38.05415", 
            "name": "Abadan", 
            "long": "58.19721"
        }, 
        {
            "lat": "38.43624", 
            "name": "Baharly", 
            "long": "57.43158"
        }, 
        {
            "lat": "37.95", 
            "name": "Ashgabat", 
            "long": "58.38333"
        }, 
        {
            "lat": "37.88757", 
            "name": "Annau", 
            "long": "58.516"
        }, 
        {
            "lat": "37.38338", 
            "name": "Tejen", 
            "long": "60.50545"
        }
    ], 
    "04": [
        {
            "lat": "38.78393", 
            "name": "Sa&#253;at", 
            "long": "63.88035"
        }, 
        {
            "lat": "37.83573", 
            "name": "Atamyrat", 
            "long": "65.21058"
        }, 
        {
            "lat": "37.81244", 
            "name": "Gowurdak", 
            "long": "66.04656"
        }, 
        {
            "lat": "39.07328", 
            "name": "T&#252;rkmenabat", 
            "long": "63.57861"
        }, 
        {
            "lat": "41.18746", 
            "name": "Gazojak", 
            "long": "61.4036"
        }
    ], 
    "05": [
        {
            "lat": "37.29886", 
            "name": "Yol&#246;ten", 
            "long": "62.35975"
        }, 
        {
            "lat": "39.4816", 
            "name": "Seydi", 
            "long": "62.91374"
        }, 
        {
            "lat": "37.59378", 
            "name": "Mary", 
            "long": "61.83031"
        }, 
        {
            "lat": "37.61852", 
            "name": "Bayramaly", 
            "long": "62.16715"
        }
    ]
}