{
    "NIR": [
        {
            "lat": "54.42302", 
            "name": "Portadown", 
            "long": "-6.44434"
        }, 
        {
            "lat": "54.6", 
            "name": "Omagh", 
            "long": "-7.3"
        }, 
        {
            "lat": "54.59236", 
            "name": "Newtownards", 
            "long": "-5.69092"
        }, 
        {
            "lat": "54.65983", 
            "name": "Newtownabbey", 
            "long": "-5.90858"
        }, 
        {
            "lat": "54.17841", 
            "name": "Newry", 
            "long": "-6.33739"
        }, 
        {
            "lat": "54.99721", 
            "name": "Londonderry County Borough", 
            "long": "-7.30917"
        }, 
        {
            "lat": "54.9981", 
            "name": "Derry", 
            "long": "-7.30934"
        }, 
        {
            "lat": "54.52337", 
            "name": "Lisburn", 
            "long": "-6.03527"
        }, 
        {
            "lat": "54.85", 
            "name": "Larne", 
            "long": "-5.81667"
        }, 
        {
            "lat": "54.5735", 
            "name": "Castlereagh", 
            "long": "-5.88472"
        }, 
        {
            "lat": "54.7158", 
            "name": "Carrickfergus", 
            "long": "-5.8058"
        }, 
        {
            "lat": "54.58333", 
            "name": "Belfast", 
            "long": "-5.93333"
        }, 
        {
            "lat": "54.65338", 
            "name": "Bangor", 
            "long": "-5.66895"
        }, 
        {
            "lat": "54.35", 
            "name": "Banbridge", 
            "long": "-6.28333"
        }, 
        {
            "lat": "54.86357", 
            "name": "Ballymena", 
            "long": "-6.27628"
        }, 
        {
            "lat": "54.7", 
            "name": "Antrim", 
            "long": "-6.2"
        }, 
        {
            "lat": "54.44709", 
            "name": "Craigavon", 
            "long": "-6.387"
        }
    ], 
    "SCT": [
        {
            "lat": "55.76667", 
            "name": "Wishaw", 
            "long": "-3.91667"
        }, 
        {
            "lat": "56.11903", 
            "name": "Stirling", 
            "long": "-3.93682"
        }, 
        {
            "lat": "56.33871", 
            "name": "Saint Andrews", 
            "long": "-2.79902"
        }, 
        {
            "lat": "55.82885", 
            "name": "Rutherglen", 
            "long": "-4.21376"
        }, 
        {
            "lat": "55.87197", 
            "name": "Renfrew", 
            "long": "-4.39253"
        }, 
        {
            "lat": "55.48333", 
            "name": "Prestwick", 
            "long": "-4.61667"
        }, 
        {
            "lat": "55.93464", 
            "name": "Port Glasgow", 
            "long": "-4.6895"
        }, 
        {
            "lat": "55.9905", 
            "name": "Polmont", 
            "long": "-3.70737"
        }, 
        {
            "lat": "57.50584", 
            "name": "Peterhead", 
            "long": "-1.79806"
        }, 
        {
            "lat": "56.39522", 
            "name": "Perth", 
            "long": "-3.43139"
        }, 
        {
            "lat": "55.83166", 
            "name": "Penicuik", 
            "long": "-3.22423"
        }, 
        {
            "lat": "55.83173", 
            "name": "Paisley", 
            "long": "-4.43254"
        }, 
        {
            "lat": "55.77334", 
            "name": "Newton Mearns", 
            "long": "-4.33339"
        }, 
        {
            "lat": "55.9417", 
            "name": "Musselburgh", 
            "long": "-3.04991"
        }, 
        {
            "lat": "55.78924", 
            "name": "Motherwell", 
            "long": "-3.99187"
        }, 
        {
            "lat": "55.90288", 
            "name": "Livingston", 
            "long": "-3.52261"
        }, 
        {
            "lat": "55.73333", 
            "name": "Larkhall", 
            "long": "-3.96667"
        }, 
        {
            "lat": "55.93933", 
            "name": "Kirkintilloch", 
            "long": "-4.15262"
        }, 
        {
            "lat": "56.10982", 
            "name": "Kirkcaldy", 
            "long": "-3.16149"
        }, 
        {
            "lat": "55.65333", 
            "name": "Kilwinning", 
            "long": "-4.70666"
        }, 
        {
            "lat": "55.61171", 
            "name": "Kilmarnock", 
            "long": "-4.49581"
        }, 
        {
            "lat": "55.82906", 
            "name": "Johnstone", 
            "long": "-4.51605"
        }, 
        {
            "lat": "55.86216", 
            "name": "Coatbridge", 
            "long": "-4.02469"
        }, 
        {
            "lat": "55.90137", 
            "name": "Clydebank", 
            "long": "-4.4057"
        }, 
        {
            "lat": "56.17149", 
            "name": "Buckhaven", 
            "long": "-3.03377"
        }, 
        {
            "lat": "55.90669", 
            "name": "Bishopbriggs", 
            "long": "-4.21869"
        }, 
        {
            "lat": "55.81667", 
            "name": "Bellshill", 
            "long": "-4.01667"
        }, 
        {
            "lat": "55.91536", 
            "name": "Bearsden", 
            "long": "-4.33279"
        }, 
        {
            "lat": "55.90204", 
            "name": "Bathgate", 
            "long": "-3.64398"
        }, 
        {
            "lat": "55.79916", 
            "name": "Barrhead", 
            "long": "-4.39285"
        }, 
        {
            "lat": "55.46273", 
            "name": "Ayr", 
            "long": "-4.63393"
        }, 
        {
            "lat": "56.56317", 
            "name": "Arbroath", 
            "long": "-2.58736"
        }, 
        {
            "lat": "56.11586", 
            "name": "Alloa", 
            "long": "-3.78997"
        }, 
        {
            "lat": "55.86602", 
            "name": "Airdrie", 
            "long": "-3.98025"
        }, 
        {
            "lat": "57.14369", 
            "name": "Aberdeen", 
            "long": "-2.09814"
        }, 
        {
            "lat": "55.9005", 
            "name": "Erskine", 
            "long": "-4.45028"
        }, 
        {
            "lat": "58.21901", 
            "name": "Isle of Lewis", 
            "long": "-6.38803"
        }, 
        {
            "lat": "60.15456", 
            "name": "Shetland", 
            "long": "-1.14899"
        }, 
        {
            "lat": "58.98465", 
            "name": "Orkney", 
            "long": "-2.95953"
        }
    ], 
    "WLS": [
        {
            "lat": "53.04664", 
            "name": "Wrexham", 
            "long": "-2.99132"
        }, 
        {
            "lat": "51.60799", 
            "name": "Risca", 
            "long": "-3.10081"
        }, 
        {
            "lat": "53.31929", 
            "name": "Rhyl", 
            "long": "-3.49228"
        }, 
        {
            "lat": "51.65896", 
            "name": "Rhondda", 
            "long": "-3.44885"
        }, 
        {
            "lat": "53.33748", 
            "name": "Prestatyn", 
            "long": "-3.40776"
        }, 
        {
            "lat": "51.47903", 
            "name": "Porthcawl", 
            "long": "-3.70362"
        }, 
        {
            "lat": "51.6021", 
            "name": "Pontypridd", 
            "long": "-3.34211"
        }, 
        {
            "lat": "51.70111", 
            "name": "Pontypool", 
            "long": "-3.04444"
        }, 
        {
            "lat": "51.4386", 
            "name": "Penarth", 
            "long": "-3.17342"
        }, 
        {
            "lat": "51.58774", 
            "name": "Newport", 
            "long": "-2.99835"
        }, 
        {
            "lat": "51.66317", 
            "name": "Neath", 
            "long": "-3.80443"
        }, 
        {
            "lat": "51.74794", 
            "name": "Merthyr Tydfil", 
            "long": "-3.37779"
        }, 
        {
            "lat": "51.60926", 
            "name": "Maesteg", 
            "long": "-3.65823"
        }, 
        {
            "lat": "51.68195", 
            "name": "Llanelli", 
            "long": "-4.16191"
        }, 
        {
            "lat": "53.32498", 
            "name": "Llandudno", 
            "long": "-3.83148"
        }, 
        {
            "lat": "51.522", 
            "name": "Coity", 
            "long": "-3.55531"
        }, 
        {
            "lat": "51.68333", 
            "name": "Clydach", 
            "long": "-3.9"
        }, 
        {
            "lat": "51.85552", 
            "name": "Carmarthen", 
            "long": "-4.30535"
        }, 
        {
            "lat": "51.48", 
            "name": "Cardiff", 
            "long": "-3.18"
        }, 
        {
            "lat": "51.57452", 
            "name": "Caerphilly", 
            "long": "-3.218"
        }, 
        {
            "lat": "53.16667", 
            "name": "Buckley", 
            "long": "-3.08333"
        }, 
        {
            "lat": "53.06667", 
            "name": "Brymbo", 
            "long": "-3.06667"
        }, 
        {
            "lat": "51.63106", 
            "name": "Briton Ferry", 
            "long": "-3.81898"
        }, 
        {
            "lat": "51.50583", 
            "name": "Bridgend", 
            "long": "-3.57722"
        }, 
        {
            "lat": "51.39979", 
            "name": "Barry", 
            "long": "-3.2838"
        }, 
        {
            "lat": "53.22647", 
            "name": "Bangor", 
            "long": "-4.13459"
        }, 
        {
            "lat": "52.41548", 
            "name": "Aberystwyth", 
            "long": "-4.08292"
        }, 
        {
            "lat": "53.28436", 
            "name": "Abergele", 
            "long": "-3.5822"
        }, 
        {
            "lat": "51.71438", 
            "name": "Aberdare", 
            "long": "-3.44918"
        }, 
        {
            "lat": "51.66778", 
            "name": "Blackwood", 
            "long": "-3.2075"
        }, 
        {
            "lat": "53.20053", 
            "name": "Deeside", 
            "long": "-3.03841"
        }
    ], 
    "ENG": [
        {
            "lat": "53.95763", 
            "name": "York", 
            "long": "-1.08271"
        }, 
        {
            "lat": "50.94159", 
            "name": "Yeovil", 
            "long": "-2.63211"
        }, 
        {
            "lat": "53.86437", 
            "name": "Yeadon", 
            "long": "-1.68743"
        }, 
        {
            "lat": "51.54074", 
            "name": "Yate", 
            "long": "-2.41839"
        }, 
        {
            "lat": "50.81795", 
            "name": "Worthing", 
            "long": "-0.37538"
        }, 
        {
            "lat": "53.30182", 
            "name": "Worksop", 
            "long": "-1.12404"
        }, 
        {
            "lat": "54.6425", 
            "name": "Workington", 
            "long": "-3.54413"
        }, 
        {
            "lat": "52.18935", 
            "name": "Worcester", 
            "long": "-2.22001"
        }, 
        {
            "lat": "51.60938", 
            "name": "Woodford Green", 
            "long": "0.02329"
        }, 
        {
            "lat": "53.52189", 
            "name": "Wombwell", 
            "long": "-1.39698"
        }, 
        {
            "lat": "52.58547", 
            "name": "Wolverhampton", 
            "long": "-2.12296"
        }, 
        {
            "lat": "51.4112", 
            "name": "Wokingham", 
            "long": "-0.83565"
        }, 
        {
            "lat": "51.31903", 
            "name": "Woking", 
            "long": "-0.55893"
        }, 
        {
            "lat": "51.7836", 
            "name": "Witney", 
            "long": "-1.4854"
        }, 
        {
            "lat": "51.80007", 
            "name": "Witham", 
            "long": "0.64038"
        }, 
        {
            "lat": "52.66622", 
            "name": "Wisbech", 
            "long": "0.15938"
        }, 
        {
            "lat": "53.18333", 
            "name": "Winsford", 
            "long": "-2.51667"
        }, 
        {
            "lat": "51.48333", 
            "name": "Windsor", 
            "long": "-0.6"
        }, 
        {
            "lat": "51.06513", 
            "name": "Winchester", 
            "long": "-1.3187"
        }, 
        {
            "lat": "53.32803", 
            "name": "Wilmslow", 
            "long": "-2.23148"
        }, 
        {
            "lat": "52.6", 
            "name": "Willenhall", 
            "long": "-2.03333"
        }, 
        {
            "lat": "52.58128", 
            "name": "Wigston Magna", 
            "long": "-1.09248"
        }, 
        {
            "lat": "53.53333", 
            "name": "Wigan", 
            "long": "-2.61667"
        }, 
        {
            "lat": "53.3618", 
            "name": "Widnes", 
            "long": "-2.73406"
        }, 
        {
            "lat": "51.61101", 
            "name": "Wickford", 
            "long": "0.52331"
        }, 
        {
            "lat": "51.3607", 
            "name": "Whitstable", 
            "long": "1.0257"
        }, 
        {
            "lat": "55.03973", 
            "name": "Whitley Bay", 
            "long": "-1.44713"
        }, 
        {
            "lat": "54.54897", 
            "name": "Whitehaven", 
            "long": "-3.58412"
        }, 
        {
            "lat": "53.55", 
            "name": "Whitefield", 
            "long": "-2.3"
        }, 
        {
            "lat": "54.94561", 
            "name": "Whickham", 
            "long": "-1.67635"
        }, 
        {
            "lat": "50.61448", 
            "name": "Weymouth", 
            "long": "-2.45991"
        }, 
        {
            "lat": "51.37216", 
            "name": "Weybridge", 
            "long": "-0.45297"
        }, 
        {
            "lat": "51.34603", 
            "name": "Weston-super-Mare", 
            "long": "-2.97665"
        }, 
        {
            "lat": "51.39985", 
            "name": "West Molesey", 
            "long": "-0.37997"
        }, 
        {
            "lat": "53.54899", 
            "name": "Westhoughton", 
            "long": "-2.52464"
        }, 
        {
            "lat": "52.51868", 
            "name": "West Bromwich", 
            "long": "-1.9945"
        }, 
        {
            "lat": "52.92979", 
            "name": "West Bridgford", 
            "long": "-1.12537"
        }, 
        {
            "lat": "51.80174", 
            "name": "Welwyn Garden City", 
            "long": "-0.20691"
        }, 
        {
            "lat": "52.7", 
            "name": "Wellington", 
            "long": "-2.51667"
        }, 
        {
            "lat": "52.30273", 
            "name": "Wellingborough", 
            "long": "-0.69446"
        }, 
        {
            "lat": "51.46246", 
            "name": "Welling", 
            "long": "0.10759"
        }, 
        {
            "lat": "52.6", 
            "name": "Wednesfield", 
            "long": "-2.08333"
        }, 
        {
            "lat": "52.5514", 
            "name": "Wednesbury", 
            "long": "-2.02355"
        }, 
        {
            "lat": "53.50291", 
            "name": "Wath upon Dearne", 
            "long": "-1.3458"
        }, 
        {
            "lat": "51.65531", 
            "name": "Watford", 
            "long": "-0.39602"
        }, 
        {
            "lat": "50.88067", 
            "name": "Waterlooville", 
            "long": "-1.0304"
        }, 
        {
            "lat": "54.9", 
            "name": "Washington", 
            "long": "-1.51667"
        }, 
        {
            "lat": "52.28333", 
            "name": "Warwick", 
            "long": "-1.58333"
        }, 
        {
            "lat": "53.39254", 
            "name": "Warrington", 
            "long": "-2.58024"
        }, 
        {
            "lat": "51.20434", 
            "name": "Warminster", 
            "long": "-2.17873"
        }, 
        {
            "lat": "51.81058", 
            "name": "Ware", 
            "long": "-0.02875"
        }, 
        {
            "lat": "51.38533", 
            "name": "Walton-on-Thames", 
            "long": "-0.42066"
        }, 
        {
            "lat": "51.687", 
            "name": "Waltham Abbey", 
            "long": "-0.00421"
        }, 
        {
            "lat": "52.58528", 
            "name": "Walsall", 
            "long": "-1.98396"
        }, 
        {
            "lat": "54.99111", 
            "name": "Wallsend", 
            "long": "-1.53397"
        }, 
        {
            "lat": "53.42324", 
            "name": "Wallasey", 
            "long": "-3.06497"
        }, 
        {
            "lat": "53.51667", 
            "name": "Walkden", 
            "long": "-2.4"
        }, 
        {
            "lat": "53.68331", 
            "name": "Wakefield", 
            "long": "-1.49768"
        }, 
        {
            "lat": "53.44852", 
            "name": "Urmston", 
            "long": "-2.35419"
        }, 
        {
            "lat": "52.19166", 
            "name": "Uckfield", 
            "long": "-1.70734"
        }, 
        {
            "lat": "52.18893", 
            "name": "Stowmarket", 
            "long": "0.99774"
        }, 
        {
            "lat": "52.35", 
            "name": "Stourport-on-Severn", 
            "long": "-2.26667"
        }, 
        {
            "lat": "52.45608", 
            "name": "Stourbridge", 
            "long": "-2.14317"
        }, 
        {
            "lat": "53.00415", 
            "name": "Stoke-on-Trent", 
            "long": "-2.18538"
        }, 
        {
            "lat": "54.56848", 
            "name": "Stockton-on-Tees", 
            "long": "-1.3187"
        }, 
        {
            "lat": "53.40979", 
            "name": "Stockport", 
            "long": "-2.15761"
        }, 
        {
            "lat": "51.90224", 
            "name": "Stevenage", 
            "long": "-0.20256"
        }, 
        {
            "lat": "53.26667", 
            "name": "Staveley", 
            "long": "-1.35"
        }, 
        {
            "lat": "52.65", 
            "name": "Stamford", 
            "long": "-0.48333"
        }, 
        {
            "lat": "53.48414", 
            "name": "Stalybridge", 
            "long": "-2.05908"
        }, 
        {
            "lat": "51.43092", 
            "name": "Staines", 
            "long": "-0.50606"
        }, 
        {
            "lat": "52.80521", 
            "name": "Stafford", 
            "long": "-2.11636"
        }, 
        {
            "lat": "54.6988", 
            "name": "Spennymoor", 
            "long": "-1.60229"
        }, 
        {
            "lat": "52.78709", 
            "name": "Spalding", 
            "long": "-0.15141"
        }, 
        {
            "lat": "54.99859", 
            "name": "South Shields", 
            "long": "-1.4323"
        }, 
        {
            "lat": "50.79205", 
            "name": "Southsea", 
            "long": "-1.08593"
        }, 
        {
            "lat": "53.64779", 
            "name": "Southport", 
            "long": "-3.00648"
        }, 
        {
            "lat": "51.50799", 
            "name": "South Ockendon", 
            "long": "0.28333"
        }, 
        {
            "lat": "51.53782", 
            "name": "Southend-on-Sea", 
            "long": "0.71433"
        }, 
        {
            "lat": "53.59709", 
            "name": "South Elmsall", 
            "long": "-1.28034"
        }, 
        {
            "lat": "51.55295", 
            "name": "South Benfleet", 
            "long": "0.55962"
        }, 
        {
            "lat": "50.90395", 
            "name": "Southampton", 
            "long": "-1.40428"
        }, 
        {
            "lat": "51.50896", 
            "name": "Southall", 
            "long": "-0.3713"
        }, 
        {
            "lat": "52.41426", 
            "name": "Solihull", 
            "long": "-1.78094"
        }, 
        {
            "lat": "51.50949", 
            "name": "Slough", 
            "long": "-0.59541"
        }, 
        {
            "lat": "52.99826", 
            "name": "Sleaford", 
            "long": "-0.40941"
        }, 
        {
            "lat": "53.55024", 
            "name": "Skelmersdale", 
            "long": "-2.77348"
        }, 
        {
            "lat": "53.14362", 
            "name": "Skegness", 
            "long": "0.3363"
        }, 
        {
            "lat": "51.34128", 
            "name": "Sittingbourne", 
            "long": "0.73282"
        }, 
        {
            "lat": "52.71009", 
            "name": "Shrewsbury", 
            "long": "-2.75208"
        }, 
        {
            "lat": "50.83413", 
            "name": "Shoreham-by-Sea", 
            "long": "-0.27431"
        }, 
        {
            "lat": "51.3334", 
            "name": "Shoreham", 
            "long": "0.17801"
        }, 
        {
            "lat": "53.83333", 
            "name": "Shipley", 
            "long": "-1.76667"
        }, 
        {
            "lat": "53.38297", 
            "name": "Sheffield", 
            "long": "-1.4659"
        }, 
        {
            "lat": "51.26997", 
            "name": "Sevenoaks", 
            "long": "0.19278"
        }, 
        {
            "lat": "53.78333", 
            "name": "Selby", 
            "long": "-1.06667"
        }, 
        {
            "lat": "54.83903", 
            "name": "Seaham", 
            "long": "-1.34575"
        }, 
        {
            "lat": "50.77141", 
            "name": "Seaford", 
            "long": "0.10268"
        }, 
        {
            "lat": "53.57905", 
            "name": "Scunthorpe", 
            "long": "-0.65437"
        }, 
        {
            "lat": "54.27966", 
            "name": "Scarborough", 
            "long": "-0.40443"
        }, 
        {
            "lat": "50.65158", 
            "name": "Sandown", 
            "long": "-1.16103"
        }, 
        {
            "lat": "53.14515", 
            "name": "Sandbach", 
            "long": "-2.36251"
        }, 
        {
            "lat": "51.06931", 
            "name": "Salisbury", 
            "long": "-1.79569"
        }, 
        {
            "lat": "53.48771", 
            "name": "Salford", 
            "long": "-2.29042"
        }, 
        {
            "lat": "53.42519", 
            "name": "Sale", 
            "long": "-2.32443"
        }, 
        {
            "lat": "52.21667", 
            "name": "Saint Neots", 
            "long": "-0.26667"
        }, 
        {
            "lat": "53.45", 
            "name": "St Helens", 
            "long": "-2.73333"
        }, 
        {
            "lat": "50.3425", 
            "name": "St Austell", 
            "long": "-4.77442"
        }, 
        {
            "lat": "51.75", 
            "name": "St Albans", 
            "long": "-0.33333"
        }, 
        {
            "lat": "52.61667", 
            "name": "Ryton", 
            "long": "-2.35"
        }, 
        {
            "lat": "50.72999", 
            "name": "Ryde", 
            "long": "-1.1621"
        }, 
        {
            "lat": "52.28927", 
            "name": "Rushden", 
            "long": "-0.60184"
        }, 
        {
            "lat": "53.34174", 
            "name": "Runcorn", 
            "long": "-2.73124"
        }, 
        {
            "lat": "51.57344", 
            "name": "Ruislip", 
            "long": "-0.42341"
        }, 
        {
            "lat": "52.7593", 
            "name": "Rugeley", 
            "long": "-1.93694"
        }, 
        {
            "lat": "52.37092", 
            "name": "Rugby", 
            "long": "-1.26417"
        }, 
        {
            "lat": "53.56507", 
            "name": "Royton", 
            "long": "-2.12267"
        }, 
        {
            "lat": "51.13245", 
            "name": "Royal Tunbridge Wells", 
            "long": "0.26333"
        }, 
        {
            "lat": "50.80984", 
            "name": "Rottingdean", 
            "long": "-0.05939"
        }, 
        {
            "lat": "53.43012", 
            "name": "Rotherham", 
            "long": "-1.35678"
        }, 
        {
            "lat": "50.98906", 
            "name": "Romsey", 
            "long": "-1.49989"
        }, 
        {
            "lat": "51.58198", 
            "name": "Rochford", 
            "long": "0.70673"
        }, 
        {
            "lat": "51.38764", 
            "name": "Rochester", 
            "long": "0.50546"
        }, 
        {
            "lat": "53.61766", 
            "name": "Rochdale", 
            "long": "-2.1552"
        }, 
        {
            "lat": "54.13521", 
            "name": "Ripon", 
            "long": "-1.52122"
        }, 
        {
            "lat": "53.03333", 
            "name": "Ripley", 
            "long": "-1.4"
        }, 
        {
            "lat": "51.23758", 
            "name": "Reigate", 
            "long": "-0.2078"
        }, 
        {
            "lat": "51.24048", 
            "name": "Redhill", 
            "long": "-0.17044"
        }, 
        {
            "lat": "52.3065", 
            "name": "Redditch", 
            "long": "-1.94569"
        }, 
        {
            "lat": "54.61657", 
            "name": "Redcar", 
            "long": "-1.05999"
        }, 
        {
            "lat": "51.45625", 
            "name": "Reading", 
            "long": "-0.97113"
        }, 
        {
            "lat": "51.58571", 
            "name": "Rayleigh", 
            "long": "0.60459"
        }, 
        {
            "lat": "53.70076", 
            "name": "Rawtenstall", 
            "long": "-2.28442"
        }, 
        {
            "lat": "53.46062", 
            "name": "Rawmarsh", 
            "long": "-1.34437"
        }, 
        {
            "lat": "51.33576", 
            "name": "Ramsgate", 
            "long": "1.41552"
        }, 
        {
            "lat": "53.64789", 
            "name": "Ramsbottom", 
            "long": "-2.31683"
        }, 
        {
            "lat": "51.33678", 
            "name": "Purley", 
            "long": "-0.11201"
        }, 
        {
            "lat": "53.79538", 
            "name": "Pudsey", 
            "long": "-1.66134"
        }, 
        {
            "lat": "53.53333", 
            "name": "Prestwich", 
            "long": "-2.28333"
        }, 
        {
            "lat": "53.76667", 
            "name": "Preston", 
            "long": "-2.71667"
        }, 
        {
            "lat": "53.42948", 
            "name": "Prescot", 
            "long": "-2.80031"
        }, 
        {
            "lat": "53.83333", 
            "name": "Poulton le Fylde", 
            "long": "-2.98333"
        }, 
        {
            "lat": "51.69353", 
            "name": "Potters Bar", 
            "long": "-0.17835"
        }, 
        {
            "lat": "50.79899", 
            "name": "Portsmouth", 
            "long": "-1.09125"
        }, 
        {
            "lat": "50.84286", 
            "name": "Portslade", 
            "long": "-0.21608"
        }, 
        {
            "lat": "51.48199", 
            "name": "Portishead", 
            "long": "-2.76973"
        }, 
        {
            "lat": "50.71667", 
            "name": "Poole", 
            "long": "-2"
        }, 
        {
            "lat": "53.69107", 
            "name": "Pontefract", 
            "long": "-1.31269"
        }, 
        {
            "lat": "50.35999", 
            "name": "Plymstock", 
            "long": "-4.09049"
        }, 
        {
            "lat": "50.37153", 
            "name": "Plymouth", 
            "long": "-4.14305"
        }, 
        {
            "lat": "51.56387", 
            "name": "Pitsea", 
            "long": "0.50859"
        }, 
        {
            "lat": "51.59384", 
            "name": "Pinner", 
            "long": "-0.38216"
        }, 
        {
            "lat": "54.76032", 
            "name": "Peterlee", 
            "long": "-1.33649"
        }, 
        {
            "lat": "52.57364", 
            "name": "Peterborough", 
            "long": "-0.24777"
        }, 
        {
            "lat": "50.11861", 
            "name": "Penzance", 
            "long": "-5.53715"
        }, 
        {
            "lat": "50.43565", 
            "name": "Paignton", 
            "long": "-3.56789"
        }, 
        {
            "lat": "51.75222", 
            "name": "Oxford", 
            "long": "-1.25596"
        }, 
        {
            "lat": "52.86195", 
            "name": "Oswestry", 
            "long": "-3.05497"
        }, 
        {
            "lat": "53.67978", 
            "name": "Ossett", 
            "long": "-1.58006"
        }, 
        {
            "lat": "51.37457", 
            "name": "Orpington", 
            "long": "0.09785"
        }, 
        {
            "lat": "53.56685", 
            "name": "Ormskirk", 
            "long": "-2.88178"
        }, 
        {
            "lat": "53.54051", 
            "name": "Oldham", 
            "long": "-2.1183"
        }, 
        {
            "lat": "52.60621", 
            "name": "Oadby", 
            "long": "-1.08354"
        }, 
        {
            "lat": "52.52323", 
            "name": "Nuneaton", 
            "long": "-1.46523"
        }, 
        {
            "lat": "52.9536", 
            "name": "Nottingham", 
            "long": "-1.15047"
        }, 
        {
            "lat": "52.62783", 
            "name": "Norwich", 
            "long": "1.29834"
        }, 
        {
            "lat": "53.25882", 
            "name": "Northwich", 
            "long": "-2.52025"
        }, 
        {
            "lat": "55.01646", 
            "name": "North Shields", 
            "long": "-1.44925"
        }, 
        {
            "lat": "51.54855", 
            "name": "Northolt", 
            "long": "-0.36778"
        }, 
        {
            "lat": "50.82882", 
            "name": "Lancing", 
            "long": "-0.32247"
        }, 
        {
            "lat": "52.25", 
            "name": "Northampton", 
            "long": "-0.88333"
        }, 
        {
            "lat": "54.33901", 
            "name": "Northallerton", 
            "long": "-1.43243"
        }, 
        {
            "lat": "53.45", 
            "name": "Newton-le-Willows", 
            "long": "-2.6"
        }, 
        {
            "lat": "54.61842", 
            "name": "Newton Aycliffe", 
            "long": "-1.5719"
        }, 
        {
            "lat": "50.52858", 
            "name": "Newton Abbot", 
            "long": "-3.61186"
        }, 
        {
            "lat": "50.41563", 
            "name": "Newquay", 
            "long": "-5.07521"
        }, 
        {
            "lat": "52.08731", 
            "name": "Newport Pagnell", 
            "long": "-0.72218"
        }, 
        {
            "lat": "50.70146", 
            "name": "Newport", 
            "long": "-1.29124"
        }, 
        {
            "lat": "50.75601", 
            "name": "New Milton", 
            "long": "-1.6658"
        }, 
        {
            "lat": "52.24467", 
            "name": "Newmarket", 
            "long": "0.40418"
        }, 
        {
            "lat": "51.39915", 
            "name": "New Malden", 
            "long": "-0.2556"
        }, 
        {
            "lat": "54.97328", 
            "name": "Newcastle upon Tyne", 
            "long": "-1.61396"
        }, 
        {
            "lat": "53", 
            "name": "Newcastle under Lyme", 
            "long": "-2.23333"
        }, 
        {
            "lat": "51.40148", 
            "name": "Newbury", 
            "long": "-1.32471"
        }, 
        {
            "lat": "54.9876", 
            "name": "Newburn", 
            "long": "-1.74415"
        }, 
        {
            "lat": "53.06667", 
            "name": "Newark on Trent", 
            "long": "-0.81667"
        }, 
        {
            "lat": "53.83333", 
            "name": "Nelson", 
            "long": "-2.2"
        }, 
        {
            "lat": "51.43239", 
            "name": "Nailsea", 
            "long": "-2.75847"
        }, 
        {
            "lat": "53.74013", 
            "name": "Morley", 
            "long": "-1.59877"
        }, 
        {
            "lat": "53.4", 
            "name": "Moreton", 
            "long": "-3.11667"
        }, 
        {
            "lat": "54.06835", 
            "name": "Morecambe", 
            "long": "-2.86108"
        }, 
        {
            "lat": "51.40322", 
            "name": "Mitcham", 
            "long": "-0.16831"
        }, 
        {
            "lat": "53.67343", 
            "name": "Mirfield", 
            "long": "-1.69636"
        }, 
        {
            "lat": "52.04172", 
            "name": "Milton Keynes", 
            "long": "-0.75583"
        }, 
        {
            "lat": "53.55", 
            "name": "Middleton", 
            "long": "-2.2"
        }, 
        {
            "lat": "54.57623", 
            "name": "Middlesbrough", 
            "long": "-1.23483"
        }, 
        {
            "lat": "53.49389", 
            "name": "Mexborough", 
            "long": "-1.29243"
        }, 
        {
            "lat": "52.76588", 
            "name": "Melton Mowbray", 
            "long": "-0.88693"
        }, 
        {
            "lat": "53.39452", 
            "name": "Marple", 
            "long": "-2.06292"
        }, 
        {
            "lat": "51.56933", 
            "name": "Marlow", 
            "long": "-0.77415"
        }, 
        {
            "lat": "52.4776", 
            "name": "Market Harborough", 
            "long": "-0.92053"
        }, 
        {
            "lat": "51.38132", 
            "name": "Margate", 
            "long": "1.38617"
        }, 
        {
            "lat": "52.55131", 
            "name": "March", 
            "long": "0.08828"
        }, 
        {
            "lat": "53.16495", 
            "name": "Mansfield Woodhouse", 
            "long": "-1.19384"
        }, 
        {
            "lat": "53.13333", 
            "name": "Mansfield", 
            "long": "-1.2"
        }, 
        {
            "lat": "51.4878", 
            "name": "Mangotsfield", 
            "long": "-2.50403"
        }, 
        {
            "lat": "53.48095", 
            "name": "Manchester", 
            "long": "-2.23743"
        }, 
        {
            "lat": "53.41667", 
            "name": "Maltby", 
            "long": "-1.2"
        }, 
        {
            "lat": "51.7311", 
            "name": "Maldon", 
            "long": "0.67463"
        }, 
        {
            "lat": "51.26667", 
            "name": "Maidstone", 
            "long": "0.51667"
        }, 
        {
            "lat": "51.52279", 
            "name": "Maidenhead", 
            "long": "-0.71986"
        }, 
        {
            "lat": "53.51619", 
            "name": "Maghull", 
            "long": "-2.94117"
        }, 
        {
            "lat": "53.26023", 
            "name": "Macclesfield", 
            "long": "-2.12564"
        }, 
        {
            "lat": "51.87967", 
            "name": "Luton", 
            "long": "-0.41748"
        }, 
        {
            "lat": "52.4752", 
            "name": "Lowestoft", 
            "long": "1.75159"
        }, 
        {
            "lat": "53.36664", 
            "name": "Louth", 
            "long": "-0.00438"
        }, 
        {
            "lat": "52.76667", 
            "name": "Loughborough", 
            "long": "-1.2"
        }, 
        {
            "lat": "51.3969", 
            "name": "Longfield", 
            "long": "0.30212"
        }, 
        {
            "lat": "52.89855", 
            "name": "Long Eaton", 
            "long": "-1.27136"
        }, 
        {
            "lat": "51.51279", 
            "name": "City of London", 
            "long": "-0.09184"
        }, 
        {
            "lat": "51.50853", 
            "name": "London", 
            "long": "-0.12574"
        }, 
        {
            "lat": "53.72947", 
            "name": "Lofthouse", 
            "long": "-1.49697"
        }, 
        {
            "lat": "53.41058", 
            "name": "Liverpool", 
            "long": "-2.97794"
        }, 
        {
            "lat": "50.80691", 
            "name": "Littlehampton", 
            "long": "-0.53782"
        }, 
        {
            "lat": "53.46993", 
            "name": "Litherland", 
            "long": "-2.99809"
        }, 
        {
            "lat": "53.22683", 
            "name": "Lincoln", 
            "long": "-0.53792"
        }, 
        {
            "lat": "52.68154", 
            "name": "Lichfield", 
            "long": "-1.82549"
        }, 
        {
            "lat": "53.69786", 
            "name": "Leyland", 
            "long": "-2.68758"
        }, 
        {
            "lat": "50.8742", 
            "name": "Lewes", 
            "long": "0.00772"
        }, 
        {
            "lat": "51.97944", 
            "name": "Letchworth", 
            "long": "-0.2284"
        }, 
        {
            "lat": "51.91722", 
            "name": "Leighton Buzzard", 
            "long": "-0.65802"
        }, 
        {
            "lat": "53.48333", 
            "name": "Leigh", 
            "long": "-2.51667"
        }, 
        {
            "lat": "52.6386", 
            "name": "Leicester", 
            "long": "-1.13169"
        }, 
        {
            "lat": "53.10434", 
            "name": "Leek", 
            "long": "-2.02207"
        }, 
        {
            "lat": "53.79648", 
            "name": "Leeds", 
            "long": "-1.54785"
        }, 
        {
            "lat": "51.29652", 
            "name": "Leatherhead", 
            "long": "-0.3338"
        }, 
        {
            "lat": "52.3", 
            "name": "Royal Leamington Spa", 
            "long": "-1.53333"
        }, 
        {
            "lat": "54.04649", 
            "name": "Lancaster", 
            "long": "-2.79988"
        }, 
        {
            "lat": "53.09982", 
            "name": "Kirkby in Ashfield", 
            "long": "-1.24379"
        }, 
        {
            "lat": "53.48333", 
            "name": "Kirkby", 
            "long": "-2.9"
        }, 
        {
            "lat": "51.45278", 
            "name": "Kingswood", 
            "long": "-2.50833"
        }, 
        {
            "lat": "52.49755", 
            "name": "Kingswinford", 
            "long": "-2.16889"
        }, 
        {
            "lat": "53.7446", 
            "name": "Hull", 
            "long": "-0.33525"
        }, 
        {
            "lat": "52.75172", 
            "name": "King's Lynn", 
            "long": "0.39516"
        }, 
        {
            "lat": "53.08691", 
            "name": "Kidsgrove", 
            "long": "-2.23777"
        }, 
        {
            "lat": "51.82166", 
            "name": "Kidlington", 
            "long": "-1.2886"
        }, 
        {
            "lat": "52.38819", 
            "name": "Kidderminster", 
            "long": "-2.25"
        }, 
        {
            "lat": "51.41387", 
            "name": "Keynsham", 
            "long": "-2.4978"
        }, 
        {
            "lat": "52.39836", 
            "name": "Kettering", 
            "long": "-0.72571"
        }, 
        {
            "lat": "52.34286", 
            "name": "Kenilworth", 
            "long": "-1.58015"
        }, 
        {
            "lat": "54.32681", 
            "name": "Kendal", 
            "long": "-2.74757"
        }, 
        {
            "lat": "52.11599", 
            "name": "Kempston", 
            "long": "-0.50044"
        }, 
        {
            "lat": "53.86791", 
            "name": "Keighley", 
            "long": "-1.90664"
        }, 
        {
            "lat": "54.98036", 
            "name": "Jarrow", 
            "long": "-1.48423"
        }, 
        {
            "lat": "51.53622", 
            "name": "Islington", 
            "long": "-0.10304"
        }, 
        {
            "lat": "51.47518", 
            "name": "Isleworth", 
            "long": "-0.34246"
        }, 
        {
            "lat": "51.88921", 
            "name": "Irvine", 
            "long": "0.90421"
        }, 
        {
            "lat": "51.32997", 
            "name": "Cobham", 
            "long": "-0.4113"
        }, 
        {
            "lat": "52.72247", 
            "name": "Coalville", 
            "long": "-1.3702"
        }, 
        {
            "lat": "53.86667", 
            "name": "Clitheroe", 
            "long": "-2.4"
        }, 
        {
            "lat": "51.44227", 
            "name": "Clevedon", 
            "long": "-2.85786"
        }, 
        {
            "lat": "53.56047", 
            "name": "Cleethorpes", 
            "long": "-0.03225"
        }, 
        {
            "lat": "53.72405", 
            "name": "Cleckheaton", 
            "long": "-1.71294"
        }, 
        {
            "lat": "51.78967", 
            "name": "Clacton-on-Sea", 
            "long": "1.15597"
        }, 
        {
            "lat": "51.71708", 
            "name": "Cirencester", 
            "long": "-1.96825"
        }, 
        {
            "lat": "50.73306", 
            "name": "Christchurch", 
            "long": "-1.77567"
        }, 
        {
            "lat": "53.65", 
            "name": "Chorley", 
            "long": "-2.61667"
        }, 
        {
            "lat": "51.41709", 
            "name": "Chislehurst", 
            "long": "0.06858"
        }, 
        {
            "lat": "51.53813", 
            "name": "Chipping Sodbury", 
            "long": "-2.39379"
        }, 
        {
            "lat": "51.46", 
            "name": "Chippenham", 
            "long": "-2.12472"
        }, 
        {
            "lat": "50.83673", 
            "name": "Chichester", 
            "long": "-0.78003"
        }, 
        {
            "lat": "54.85862", 
            "name": "Chester-le-Street", 
            "long": "-1.57408"
        }, 
        {
            "lat": "53.25", 
            "name": "Chesterfield", 
            "long": "-1.41667"
        }, 
        {
            "lat": "53.1905", 
            "name": "Chester", 
            "long": "-2.89189"
        }, 
        {
            "lat": "51.3624", 
            "name": "Chessington", 
            "long": "-0.30427"
        }, 
        {
            "lat": "51.70791", 
            "name": "Cheshunt", 
            "long": "-0.03739"
        }, 
        {
            "lat": "51.7", 
            "name": "Chesham", 
            "long": "-0.6"
        }, 
        {
            "lat": "51.9", 
            "name": "Cheltenham", 
            "long": "-2.08333"
        }, 
        {
            "lat": "51.48755", 
            "name": "Chelsea", 
            "long": "-0.16936"
        }, 
        {
            "lat": "51.73575", 
            "name": "Chelmsford", 
            "long": "0.46958"
        }, 
        {
            "lat": "53.3761", 
            "name": "Cheadle Hulme", 
            "long": "-2.1897"
        }, 
        {
            "lat": "51.37891", 
            "name": "Chatham", 
            "long": "0.52786"
        }, 
        {
            "lat": "53.46506", 
            "name": "Chapletown", 
            "long": "-1.47217"
        }, 
        {
            "lat": "51.01219", 
            "name": "Chandlers Ford", 
            "long": "-1.38136"
        }, 
        {
            "lat": "51.60885", 
            "name": "Chalfont Saint Peter", 
            "long": "-0.55618"
        }, 
        {
            "lat": "51.2823", 
            "name": "Caterham", 
            "long": "-0.07889"
        }, 
        {
            "lat": "53.72587", 
            "name": "Castleford", 
            "long": "-1.36256"
        }, 
        {
            "lat": "51.36829", 
            "name": "Carshalton", 
            "long": "-0.16755"
        }, 
        {
            "lat": "54.8951", 
            "name": "Carlisle", 
            "long": "-2.9382"
        }, 
        {
            "lat": "51.27904", 
            "name": "Canterbury", 
            "long": "1.07992"
        }, 
        {
            "lat": "52.69045", 
            "name": "Cannock", 
            "long": "-2.03085"
        }, 
        {
            "lat": "52.2", 
            "name": "Cambridge", 
            "long": "0.11667"
        }, 
        {
            "lat": "50.21306", 
            "name": "Camborne", 
            "long": "-5.29731"
        }, 
        {
            "lat": "51.33705", 
            "name": "Camberley", 
            "long": "-0.74261"
        }, 
        {
            "lat": "53.25741", 
            "name": "Buxton", 
            "long": "-1.90982"
        }, 
        {
            "lat": "51.64316", 
            "name": "Bushey", 
            "long": "-0.36053"
        }, 
        {
            "lat": "52.2463", 
            "name": "Bury St Edmunds", 
            "long": "0.71111"
        }, 
        {
            "lat": "53.6", 
            "name": "Bury", 
            "long": "-2.3"
        }, 
        {
            "lat": "52.80728", 
            "name": "Burton upon Trent", 
            "long": "-1.64263"
        }, 
        {
            "lat": "52.68075", 
            "name": "Burntwood", 
            "long": "-1.92759"
        }, 
        {
            "lat": "53.8", 
            "name": "Burnley", 
            "long": "-2.23333"
        }, 
        {
            "lat": "51.23862", 
            "name": "Burnham-on-Sea", 
            "long": "-2.9978"
        }, 
        {
            "lat": "50.95843", 
            "name": "Burgess Hill", 
            "long": "-0.13287"
        }, 
        {
            "lat": "52.63333", 
            "name": "Brownhills", 
            "long": "-1.93333"
        }, 
        {
            "lat": "52.33574", 
            "name": "Bromsgrove", 
            "long": "-2.05983"
        }, 
        {
            "lat": "51.35908", 
            "name": "Broadstairs", 
            "long": "1.43938"
        }, 
        {
            "lat": "50.39431", 
            "name": "Brixham", 
            "long": "-3.51585"
        }, 
        {
            "lat": "51.45523", 
            "name": "Bristol", 
            "long": "-2.59665"
        }, 
        {
            "lat": "50.82838", 
            "name": "Brighton", 
            "long": "-0.13947"
        }, 
        {
            "lat": "53.70322", 
            "name": "Brighouse", 
            "long": "-1.78428"
        }, 
        {
            "lat": "52.48173", 
            "name": "Brierley Hill", 
            "long": "-2.12139"
        }, 
        {
            "lat": "54.08306", 
            "name": "Bridlington", 
            "long": "-0.19192"
        }, 
        {
            "lat": "51.12837", 
            "name": "Bridgwater", 
            "long": "-3.00356"
        }, 
        {
            "lat": "51.62127", 
            "name": "Brentwood", 
            "long": "0.30556"
        }, 
        {
            "lat": "53.41667", 
            "name": "Bredbury", 
            "long": "-2.11667"
        }, 
        {
            "lat": "53.35801", 
            "name": "Bramhall", 
            "long": "-2.16539"
        }, 
        {
            "lat": "51.87819", 
            "name": "Braintree", 
            "long": "0.55292"
        }, 
        {
            "lat": "53.79391", 
            "name": "Bradford", 
            "long": "-1.75206"
        }, 
        {
            "lat": "51.41363", 
            "name": "Bracknell", 
            "long": "-0.75054"
        }, 
        {
            "lat": "50.72048", 
            "name": "Bournemouth", 
            "long": "-1.8795"
        }, 
        {
            "lat": "52.97633", 
            "name": "Boston", 
            "long": "-0.02664"
        }, 
        {
            "lat": "51.65468", 
            "name": "Borehamwood", 
            "long": "-0.27762"
        }, 
        {
            "lat": "53.46667", 
            "name": "Bootle", 
            "long": "-3.01667"
        }, 
        {
            "lat": "53.58333", 
            "name": "Bolton", 
            "long": "-2.43333"
        }, 
        {
            "lat": "50.78206", 
            "name": "Bognor Regis", 
            "long": "-0.67978"
        }, 
        {
            "lat": "55.12708", 
            "name": "Blyth", 
            "long": "-1.50856"
        }, 
        {
            "lat": "52.61806", 
            "name": "Bloxwich", 
            "long": "-2.00431"
        }, 
        {
            "lat": "51.99334", 
            "name": "Bletchley", 
            "long": "-0.73471"
        }, 
        {
            "lat": "53.81667", 
            "name": "Blackpool", 
            "long": "-3.05"
        }, 
        {
            "lat": "53.75", 
            "name": "Blackburn", 
            "long": "-2.48333"
        }, 
        {
            "lat": "50.96643", 
            "name": "Bishopstoke", 
            "long": "-1.32832"
        }, 
        {
            "lat": "51.87113", 
            "name": "Bishops Stortford", 
            "long": "0.15868"
        }, 
        {
            "lat": "54.65554", 
            "name": "Bishop Auckland", 
            "long": "-1.67706"
        }, 
        {
            "lat": "52.48142", 
            "name": "Birmingham", 
            "long": "-1.89983"
        }, 
        {
            "lat": "53.39337", 
            "name": "Birkenhead", 
            "long": "-3.01479"
        }, 
        {
            "lat": "53.84861", 
            "name": "Bingley", 
            "long": "-1.83857"
        }, 
        {
            "lat": "54.58881", 
            "name": "Billingham", 
            "long": "-1.29034"
        }, 
        {
            "lat": "51.62867", 
            "name": "Billericay", 
            "long": "0.41963"
        }, 
        {
            "lat": "52.08652", 
            "name": "Biggleswade", 
            "long": "-0.26493"
        }, 
        {
            "lat": "51.01678", 
            "name": "Bideford", 
            "long": "-4.20832"
        }, 
        {
            "lat": "53.11724", 
            "name": "Biddulph", 
            "long": "-2.17584"
        }, 
        {
            "lat": "51.89998", 
            "name": "Bicester", 
            "long": "-1.15357"
        }, 
        {
            "lat": "51.44162", 
            "name": "Bexley", 
            "long": "0.14866"
        }, 
        {
            "lat": "50.85023", 
            "name": "Bexhill-on-Sea", 
            "long": "0.47095"
        }, 
        {
            "lat": "53.84587", 
            "name": "Beverley", 
            "long": "-0.42332"
        }, 
        {
            "lat": "55.78333", 
            "name": "Berwick-Upon-Tweed", 
            "long": "-2"
        }, 
        {
            "lat": "51.7604", 
            "name": "Berkhamsted", 
            "long": "-0.56528"
        }, 
        {
            "lat": "53.53333", 
            "name": "Bentley", 
            "long": "-1.15"
        }, 
        {
            "lat": "53.0233", 
            "name": "Belper", 
            "long": "-1.48119"
        }, 
        {
            "lat": "52.4791", 
            "name": "Bedworth", 
            "long": "-1.46909"
        }, 
        {
            "lat": "55.13061", 
            "name": "Bedlington", 
            "long": "-1.59319"
        }, 
        {
            "lat": "52.13459", 
            "name": "Bedford", 
            "long": "-0.46632"
        }, 
        {
            "lat": "51.40878", 
            "name": "Beckenham", 
            "long": "-0.02526"
        }, 
        {
            "lat": "53.35", 
            "name": "Bebington", 
            "long": "-3.01667"
        }, 
        {
            "lat": "53.70291", 
            "name": "Batley", 
            "long": "-1.6337"
        }, 
        {
            "lat": "51.3751", 
            "name": "Bath", 
            "long": "-2.36172"
        }, 
        {
            "lat": "51.26249", 
            "name": "Basingstoke", 
            "long": "-1.08708"
        }, 
        {
            "lat": "51.56844", 
            "name": "Basildon", 
            "long": "0.45782"
        }, 
        {
            "lat": "54.11094", 
            "name": "Barrow in Furness", 
            "long": "-3.22758"
        }, 
        {
            "lat": "51.08022", 
            "name": "Barnstaple", 
            "long": "-4.05808"
        }, 
        {
            "lat": "53.55", 
            "name": "Barnsley", 
            "long": "-1.48333"
        }, 
        {
            "lat": "51.65", 
            "name": "Barnet", 
            "long": "-0.2"
        }, 
        {
            "lat": "51.53333", 
            "name": "Barking", 
            "long": "0.08333"
        }, 
        {
            "lat": "51.32503", 
            "name": "Banstead", 
            "long": "-0.19569"
        }, 
        {
            "lat": "52.0632", 
            "name": "Banbury", 
            "long": "-1.34222"
        }, 
        {
            "lat": "53.84711", 
            "name": "Baildon", 
            "long": "-1.78785"
        }, 
        {
            "lat": "51.81665", 
            "name": "Aylesbury", 
            "long": "-0.81458"
        }, 
        {
            "lat": "53.52371", 
            "name": "Atherton", 
            "long": "-2.49354"
        }, 
        {
            "lat": "53.48876", 
            "name": "Ashton-under-Lyne", 
            "long": "-2.0989"
        }, 
        {
            "lat": "53.48333", 
            "name": "Ashton in Makerfield", 
            "long": "-2.65"
        }, 
        {
            "lat": "51.14648", 
            "name": "Ashford", 
            "long": "0.87376"
        }, 
        {
            "lat": "51.41082", 
            "name": "Ascot", 
            "long": "-0.6748"
        }, 
        {
            "lat": "53", 
            "name": "Arnold", 
            "long": "-1.13333"
        }, 
        {
            "lat": "51.21135", 
            "name": "Andover", 
            "long": "-1.49393"
        }, 
        {
            "lat": "51.66667", 
            "name": "Amersham", 
            "long": "-0.61667"
        }, 
        {
            "lat": "53.38752", 
            "name": "Altrincham", 
            "long": "-2.34848"
        }, 
        {
            "lat": "51.14931", 
            "name": "Alton", 
            "long": "-0.97469"
        }, 
        {
            "lat": "53.0961", 
            "name": "Alfreton", 
            "long": "-1.38832"
        }, 
        {
            "lat": "52.60549", 
            "name": "Aldridge", 
            "long": "-1.91715"
        }, 
        {
            "lat": "51.24827", 
            "name": "Aldershot", 
            "long": "-0.76389"
        }, 
        {
            "lat": "51.50901", 
            "name": "Acton", 
            "long": "-0.2762"
        }, 
        {
            "lat": "52.45", 
            "name": "Acocks Green", 
            "long": "-1.81667"
        }, 
        {
            "lat": "53.75379", 
            "name": "Accrington", 
            "long": "-2.35863"
        }, 
        {
            "lat": "51.67109", 
            "name": "Abingdon", 
            "long": "-1.28278"
        }, 
        {
            "lat": "53.47778", 
            "name": "Crosby", 
            "long": "-3.03333"
        }, 
        {
            "lat": "51.41222", 
            "name": "Neston", 
            "long": "-2.20056"
        }, 
        {
            "lat": "51.54057", 
            "name": "Camden Town", 
            "long": "-0.14334"
        }, 
        {
            "lat": "52.67659", 
            "name": "Telford", 
            "long": "-2.44926"
        }, 
        {
            "lat": "51.51116", 
            "name": "Bayswater", 
            "long": "-0.18426"
        }, 
        {
            "lat": "51.34305", 
            "name": "Yateley", 
            "long": "-0.82985"
        }, 
        {
            "lat": "52.63884", 
            "name": "Bowthorpe", 
            "long": "1.21885"
        }, 
        {
            "lat": "50.91234", 
            "name": "Hedge End", 
            "long": "-1.30076"
        }, 
        {
            "lat": "53.37831", 
            "name": "Hale", 
            "long": "-2.33271"
        }, 
        {
            "lat": "51.67468", 
            "name": "Amersham on the Hill", 
            "long": "-0.60742"
        }, 
        {
            "lat": "51.47475", 
            "name": "Battersea", 
            "long": "-0.15547"
        }, 
        {
            "lat": "51.36217", 
            "name": "South Croydon", 
            "long": "-0.09421"
        }, 
        {
            "lat": "51.55685", 
            "name": "Hornchurch", 
            "long": "0.21664"
        }, 
        {
            "lat": "51.39148", 
            "name": "Surbiton", 
            "long": "-0.29825"
        }, 
        {
            "lat": "51.34948", 
            "name": "Ewell", 
            "long": "-0.2494"
        }, 
        {
            "lat": "51.5529", 
            "name": "Becontree", 
            "long": "0.129"
        }, 
        {
            "lat": "51.46593", 
            "name": "Brixton", 
            "long": "-0.10652"
        }, 
        {
            "lat": "51.52718", 
            "name": "Bethnal Green", 
            "long": "-0.06109"
        }, 
        {
            "lat": "53.50484", 
            "name": "Failsworth", 
            "long": "-2.16568"
        }, 
        {
            "lat": "53.56178", 
            "name": "Radcliffe", 
            "long": "-2.32455"
        }, 
        {
            "lat": "53.59245", 
            "name": "Heywood", 
            "long": "-2.21941"
        }, 
        {
            "lat": "53.45801", 
            "name": "Longsight", 
            "long": "-2.20104"
        }, 
        {
            "lat": "50.72044", 
            "name": "Heavitree", 
            "long": "-3.49646"
        }, 
        {
            "lat": "50.80743", 
            "name": "Ferndown", 
            "long": "-1.89975"
        }, 
        {
            "lat": "53.7426", 
            "name": "Lytham St Annes", 
            "long": "-2.997"
        }, 
        {
            "lat": "51.66669", 
            "name": "Hadley Wood", 
            "long": "-0.16981"
        }, 
        {
            "lat": "53.82901", 
            "name": "Chapel Allerton", 
            "long": "-1.53834"
        }, 
        {
            "lat": "51.4647", 
            "name": "Blackheath", 
            "long": "0.0079"
        }, 
        {
            "lat": "52.08956", 
            "name": "Kempston Hardwick", 
            "long": "-0.49908"
        }, 
        {
            "lat": "51.2372", 
            "name": "Mendip", 
            "long": "-2.6266"
        }, 
        {
            "lat": "51.42708", 
            "name": "Lower Earley", 
            "long": "-0.91979"
        }, 
        {
            "lat": "52.43532", 
            "name": "Bartley Green", 
            "long": "-1.99707"
        }, 
        {
            "lat": "51.4439", 
            "name": "Earlsfield", 
            "long": "-0.1854"
        }, 
        {
            "lat": "51.97938", 
            "name": "Letchworth Garden City", 
            "long": "-0.22664"
        }, 
        {
            "lat": "52.41074", 
            "name": "Shirley", 
            "long": "-1.81952"
        }, 
        {
            "lat": "54.86796", 
            "name": "Stanley", 
            "long": "-1.69846"
        }, 
        {
            "lat": "53.68456", 
            "name": "Rossendale", 
            "long": "-2.2769"
        }, 
        {
            "lat": "53.87389", 
            "name": "Thornton-Cleveleys", 
            "long": "-3.02244"
        }, 
        {
            "lat": "53.36797", 
            "name": "High Peak", 
            "long": "-1.84536"
        }, 
        {
            "lat": "50.7838", 
            "name": "Hayling Island", 
            "long": "-0.96869"
        }, 
        {
            "lat": "51.55237", 
            "name": "Holloway", 
            "long": "-0.12497"
        }, 
        {
            "lat": "51.5824", 
            "name": "Harringay", 
            "long": "-0.09956"
        }
    ]
}