{
    "02": [
        {
            "lat": "39.53333", 
            "name": "Karakul&#8217;", 
            "long": "63.83333"
        }, 
        {
            "lat": "39.72278", 
            "name": "Kogon", 
            "long": "64.55167"
        }, 
        {
            "lat": "39.85778", 
            "name": "Galaosiyo", 
            "long": "64.44833"
        }, 
        {
            "lat": "39.77472", 
            "name": "Bukhara", 
            "long": "64.42861"
        }, 
        {
            "lat": "40.03028", 
            "name": "Wobkent", 
            "long": "64.515"
        }, 
        {
            "lat": "40.12", 
            "name": "Shofirkon", 
            "long": "64.50139"
        }, 
        {
            "lat": "40.1", 
            "name": "Ghijduwon", 
            "long": "64.68333"
        }
    ], 
    "10": [
        {
            "lat": "39.40222", 
            "name": "Urgut", 
            "long": "67.24306"
        }, 
        {
            "lat": "39.65417", 
            "name": "Samarqand", 
            "long": "66.95972"
        }, 
        {
            "lat": "39.89889", 
            "name": "Kattaqo&#8217;rg&#8217;on", 
            "long": "66.25611"
        }, 
        {
            "lat": "39.71611", 
            "name": "Juma", 
            "long": "66.66417"
        }, 
        {
            "lat": "39.92028", 
            "name": "Chelak", 
            "long": "66.86111"
        }, 
        {
            "lat": "39.76472", 
            "name": "Bulung&#8217;ur", 
            "long": "67.27139"
        }, 
        {
            "lat": "39.92139", 
            "name": "Oqtosh", 
            "long": "65.92528"
        }, 
        {
            "lat": "40.00778", 
            "name": "Payshanba", 
            "long": "66.23694"
        }
    ], 
    "13": [
        {
            "lat": "41.26465", 
            "name": "Tashkent", 
            "long": "69.21627"
        }, 
        {
            "lat": "41.20972", 
            "name": "Bektemir", 
            "long": "69.33417"
        }
    ], 
    "12": [
        {
            "lat": "37.22417", 
            "name": "Tirmiz", 
            "long": "67.27833"
        }, 
        {
            "lat": "37.99944", 
            "name": "Sho&#8217;rchi", 
            "long": "67.7875"
        }, 
        {
            "lat": "38.26667", 
            "name": "Denov", 
            "long": "67.9"
        }, 
        {
            "lat": "38.20611", 
            "name": "Boysun", 
            "long": "67.19861"
        }
    ], 
    "15": [
        {
            "lat": "39.96056", 
            "name": "Zomin", 
            "long": "68.39583"
        }, 
        {
            "lat": "40.12694", 
            "name": "Dashtobod", 
            "long": "68.49444"
        }, 
        {
            "lat": "40.31528", 
            "name": "Paxtakor", 
            "long": "67.95444"
        }, 
        {
            "lat": "40.11583", 
            "name": "Jizzax", 
            "long": "67.84222"
        }, 
        {
            "lat": "40.66194", 
            "name": "Gagarin", 
            "long": "68.17222"
        }, 
        {
            "lat": "40.52472", 
            "name": "D&#365;stlik", 
            "long": "68.03583"
        }
    ], 
    "14": [
        {
            "lat": "40.98333", 
            "name": "Zafar", 
            "long": "68.9"
        }, 
        {
            "lat": "41.11202", 
            "name": "Yangiy&#365;l", 
            "long": "69.0471"
        }, 
        {
            "lat": "41.11919", 
            "name": "Yangiobod", 
            "long": "70.09406"
        }, 
        {
            "lat": "41.0321", 
            "name": "T&#365;ytepa", 
            "long": "69.36253"
        }, 
        {
            "lat": "41.37222", 
            "name": "Salor", 
            "long": "69.38167"
        }, 
        {
            "lat": "40.89722", 
            "name": "Piskent", 
            "long": "69.35056"
        }, 
        {
            "lat": "41.29444", 
            "name": "Parkent", 
            "long": "69.67639"
        }, 
        {
            "lat": "40.84472", 
            "name": "Olmaliq", 
            "long": "69.59833"
        }, 
        {
            "lat": "40.90639", 
            "name": "Ohangaron", 
            "long": "69.63833"
        }, 
        {
            "lat": "41.38972", 
            "name": "Qibray", 
            "long": "69.465"
        }, 
        {
            "lat": "41.55389", 
            "name": "Iskandar", 
            "long": "69.70083"
        }, 
        {
            "lat": "41.55806", 
            "name": "G&#8216;azalkent", 
            "long": "69.77083"
        }, 
        {
            "lat": "41.46889", 
            "name": "Chirchiq", 
            "long": "69.58222"
        }, 
        {
            "lat": "40.93639", 
            "name": "Chinoz", 
            "long": "68.76972"
        }, 
        {
            "lat": "40.81083", 
            "name": "B&#365;ka", 
            "long": "69.19861"
        }, 
        {
            "lat": "40.22083", 
            "name": "Bekobod", 
            "long": "69.26972"
        }, 
        {
            "lat": "41.01667", 
            "name": "Angren", 
            "long": "70.14361"
        }
    ], 
    "03": [
        {
            "lat": "40.37583", 
            "name": "Yaypan", 
            "long": "70.81556"
        }, 
        {
            "lat": "40.47722", 
            "name": "Toshloq", 
            "long": "71.76778"
        }, 
        {
            "lat": "40.52861", 
            "name": "Qo&#8216;qon", 
            "long": "70.9425"
        }, 
        {
            "lat": "40.47111", 
            "name": "Marg&#8216;ilon", 
            "long": "71.72472"
        }, 
        {
            "lat": "40.30222", 
            "name": "Quvasoy", 
            "long": "71.97444"
        }, 
        {
            "lat": "40.43583", 
            "name": "Kirgili", 
            "long": "71.76722"
        }, 
        {
            "lat": "40.38421", 
            "name": "Fergana", 
            "long": "71.78432"
        }, 
        {
            "lat": "40.43583", 
            "name": "Beshariq", 
            "long": "70.61028"
        }, 
        {
            "lat": "40.39194", 
            "name": "Oltiariq", 
            "long": "71.47417"
        }, 
        {
            "lat": "40.52204", 
            "name": "Quva", 
            "long": "72.07292"
        }
    ], 
    "08": [
        {
            "lat": "39.05778", 
            "name": "Shahrisabz", 
            "long": "66.83417"
        }, 
        {
            "lat": "38.86056", 
            "name": "Qarshi", 
            "long": "65.78905"
        }, 
        {
            "lat": "39.25528", 
            "name": "Muborak", 
            "long": "65.15278"
        }, 
        {
            "lat": "39.08425", 
            "name": "Kitob", 
            "long": "66.83318"
        }, 
        {
            "lat": "39.0375", 
            "name": "Koson", 
            "long": "65.585"
        }, 
        {
            "lat": "38.62083", 
            "name": "G&#8217;uzor", 
            "long": "66.24806"
        }, 
        {
            "lat": "39.03361", 
            "name": "Chiroqchi", 
            "long": "66.57222"
        }, 
        {
            "lat": "38.82139", 
            "name": "Beshkent", 
            "long": "65.65306"
        }
    ], 
    "09": [
        {
            "lat": "42.45306", 
            "name": "Nukus", 
            "long": "59.61028"
        }, 
        {
            "lat": "42.40043", 
            "name": "Kh&#365;jayli", 
            "long": "59.46005"
        }, 
        {
            "lat": "43.06874", 
            "name": "Oltinko&#8217;l", 
            "long": "58.90372"
        }, 
        {
            "lat": "41.55", 
            "name": "Novyy Turtkul&#8217;", 
            "long": "61.01667"
        }, 
        {
            "lat": "42.11556", 
            "name": "Manghit", 
            "long": "60.05972"
        }, 
        {
            "lat": "41.69111", 
            "name": "Beruniy", 
            "long": "60.7525"
        }
    ], 
    "16": [
        {
            "lat": "40.275", 
            "name": "Yangiyer", 
            "long": "68.8225"
        }, 
        {
            "lat": "40.84361", 
            "name": "Sirdaryo", 
            "long": "68.66167"
        }, 
        {
            "lat": "40.48972", 
            "name": "Guliston", 
            "long": "68.78417"
        }
    ], 
    "06": [
        {
            "lat": "41.18722", 
            "name": "Yangiqo&#8216;rg&#8216;on", 
            "long": "71.73333"
        }, 
        {
            "lat": "41.08073", 
            "name": "Uychi", 
            "long": "71.92331"
        }, 
        {
            "lat": "41.11371", 
            "name": "Uchq&#365;rghon Shahri", 
            "long": "72.07915"
        }, 
        {
            "lat": "40.99984", 
            "name": "T&#365;rag&#365;rghon", 
            "long": "71.51162"
        }, 
        {
            "lat": "40.92339", 
            "name": "Toshbuloq", 
            "long": "71.57215"
        }, 
        {
            "lat": "40.87361", 
            "name": "Pop", 
            "long": "71.10889"
        }, 
        {
            "lat": "40.9983", 
            "name": "Namangan", 
            "long": "71.67257"
        }, 
        {
            "lat": "40.91667", 
            "name": "Haqqulobod", 
            "long": "72.11667"
        }, 
        {
            "lat": "41.25611", 
            "name": "Kosonsoy", 
            "long": "71.55083"
        }, 
        {
            "lat": "41.00936", 
            "name": "Chust Shahri", 
            "long": "71.2287"
        }, 
        {
            "lat": "41.06656", 
            "name": "Chortoq", 
            "long": "71.85527"
        }
    ], 
    "01": [
        {
            "lat": "40.64153", 
            "name": "Asaka", 
            "long": "72.23868"
        }, 
        {
            "lat": "40.73192", 
            "name": "Q&#365;rghontepa", 
            "long": "72.76177"
        }, 
        {
            "lat": "40.66886", 
            "name": "Kh&#365;jaobod", 
            "long": "72.56002"
        }, 
        {
            "lat": "40.78206", 
            "name": "Andijon", 
            "long": "72.34424"
        }
    ], 
    "05": [
        {
            "lat": "41.55", 
            "name": "Urganch", 
            "long": "60.63333"
        }, 
        {
            "lat": "41.65583", 
            "name": "Showot", 
            "long": "60.3025"
        }, 
        {
            "lat": "41.535", 
            "name": "Q&#365;shk&#365;pir", 
            "long": "60.34556"
        }, 
        {
            "lat": "41.37833", 
            "name": "Khiwa", 
            "long": "60.36389"
        }, 
        {
            "lat": "41.31944", 
            "name": "Hazorasp", 
            "long": "61.07417"
        }, 
        {
            "lat": "41.84472", 
            "name": "Gurlan", 
            "long": "60.39194"
        }
    ], 
    "07": [
        {
            "lat": "40.02539", 
            "name": "Yangirabot", 
            "long": "65.96095"
        }, 
        {
            "lat": "40.56139", 
            "name": "Nurota", 
            "long": "65.68861"
        }, 
        {
            "lat": "40.08444", 
            "name": "Navoiy", 
            "long": "65.37917"
        }, 
        {
            "lat": "40.09294", 
            "name": "Navoiy Shahri", 
            "long": "65.3712"
        }
    ]
}